~Version Information Section
VERS. 2.0 : CWLS Log ASCII Standard - VERSION 2.0
WRAP. NO  : One Line per depth Step
~Well Information Section
#MNEM.UNIT                     Data                         Information
#----------   ------------------------------------------   ----------------
STRT.M                             200.0000 : Start Depth
STOP.M                            5021.0000 : Stop Depth
NULL.        -9999.00000                        : Null Value
COMP.UPDATED NORSKHYDR                      : Company Name
WELL.        WELL-3                        : Well
FLD .        GLITNE                          : Field
LOC .        META                           : Location
PROV.                                       : Province
CNTY.                                       : County
STAT.        META                           : State/Province
CTRY.        NORWAY                      : Nation
SRVC.        30                             : Logging Company Code
DATE.        10-20-XXXX                    : Run Date
UWI .        WELL0003                       : Unique Well Identifier
API .                                       : API Number
~Parameter Information Block
#MNEM.UNIT       Value                            Description
#---------       ---------                        -------------
~Curve Information Section
#MNEM.UNIT    API CODE                      : Curve description
#---.-----    --------                      : -----------------
DEPT .m                                      : 
Vp   .km/s                                   : Vp(in Km/s)
RHOB .G/C3                                   : Bulk Density
GR   .GAPI                                   : Gamma Ray
~Ascii
# ...
     833.21960        1.95385        1.63650       20.12500
     833.37201        1.95698        1.67230       23.10940
     833.52441        1.96645        1.76030       22.50000
     833.67682        1.97922        1.85190       25.56250
     833.82922        1.99053        1.92100       26.68750
     833.98163        1.96013        1.93570       24.85940
     834.13397        1.95385        1.89730       21.78130
     834.28638        1.94450        1.84040       20.75000
     834.43878        1.92455        1.80070       23.84380
     834.59119        1.92000        1.80760       28.09370
     834.74359        1.90500        1.84310       34.81250
     834.89600        1.92759        1.86930       37.31250
     835.04840        1.95228        1.88570       44.56250
     835.20081        1.98567        1.90590       43.25000
     835.35321        2.00362        1.93570       46.81250
     835.50562        2.00033        1.94700       41.90630
     835.65802        1.98729        1.94120       38.21880
     835.81042        1.97441        1.92260       34.03120
     835.96283        1.99542        1.92190       32.34380
     836.11517        2.00362        1.94030       31.84370
     836.26758        2.01687        1.96480       27.54690
     836.41998        2.01354        1.96110       26.28130
     836.57239        2.01188        1.92630       25.04690
     836.72479        1.97922        1.92150       25.50000
     836.87720        2.01687        1.95470       21.82810
     837.02960        2.01188        2.02190       21.15630
     837.18201        1.98729        2.07140       22.46870
     837.33441        1.99542        2.07690       23.09370
     837.48682        2.01188        2.07780       20.68750
     837.63922        2.01188        2.08900       18.89060
     837.79163        1.97282        2.09690       19.56250
     837.94397        1.93524        2.09860       21.45310
     838.09637        1.91548        2.04450       23.31250
     838.24878        1.91247        1.96950       23.85940
     838.40118        1.91247        1.92410       26.15630
     838.55359        1.95228        1.93300       23.64060
     838.70599        2.02525        1.98220       21.23440
     838.85840        2.01354        2.01410       16.98440
     839.01080        2.04392        2.01410       18.81250
     839.16321        1.97922        1.94580       20.56250
     839.31561        1.96171        1.86450       23.68750
     839.46802        1.97282        1.77520       25.59370
     839.62042        1.97922        1.76000       28.78130
     839.77283        1.99216        1.80000       31.90630
     839.92517        1.99869        1.87120       36.15630
     840.07758        2.01687        1.89740       39.03120
     840.22998        1.99542        1.87880       40.06250
     840.38239        1.93986        1.86600       39.34370
     840.53479        1.93986        1.87230       40.56250
     840.68719        1.95698        1.87270       40.00000
     840.83960        1.95698        1.88150       38.87500
     840.99200        1.94916        1.87820       37.78120
     841.14441        1.93524        1.86990       37.15620
     841.29681        1.92000        1.85170       40.18750
     841.44922        1.90351        1.84400       38.93750
     841.60162        1.91247        1.85140       39.71880
     841.75403        1.92000        1.85690       35.50000
     841.90637        1.92000        1.86610       34.87500
     842.05878        1.90798        1.85760       34.03120
     842.21118        1.88731        1.84510       38.78130
     842.36359        1.90055        1.83180       41.18750
     842.51599        1.90351        1.82310       40.78120
     842.66840        1.90500        1.82380       36.00000
     842.82080        1.90055        1.83140       36.68750
     842.97321        1.89317        1.83550       38.46880
     843.12561        1.91097        1.83650       38.43750
     843.27802        1.93678        1.84400       36.53120
     843.43042        1.96171        1.86400       40.18750
     843.58282        1.98567        1.89480       38.90630
     843.73523        1.97441        1.92170       37.68750
     843.88757        1.96963        1.93230       38.84380
     844.03998        1.95698        1.93510       40.75000
     844.19238        1.97762        1.94170       40.68750
     844.34479        1.98567        1.95890       35.81250
     844.49719        2.00526        1.96670       36.43750
     844.64960        1.98244        1.93590       36.06250
     844.80200        1.96487        1.90510       31.89060
     844.95441        1.94760        1.91140       31.23440
     845.10681        1.96013        1.95930       28.04690
     845.25922        1.99542        2.02090       29.75000
     845.41162        2.03200        2.04990       27.89060
     845.56403        2.02693        2.04690       30.34380
     845.71637        1.99869        2.00080       29.76560
     845.86877        1.94140        1.96040       30.35940
     846.02118        1.92911        1.96830       26.04690
     846.17358        1.94760        2.00130       23.10940
     846.32599        1.97762        2.03840       21.96880
     846.47839        2.01687        2.04620       24.53130
     846.63080        2.03539        2.06380       27.00000
     846.78320        2.02525        2.03650       22.10940
     846.93561        2.00526        2.00850       21.37500
     847.08801        2.01188        1.99980       18.23440
     847.24042        2.01687        2.04710       21.84370
     847.39282        2.03031        2.08260       20.67190
     847.54523        2.04050        2.09470       23.10940
     847.69757        2.04050        2.08450       24.28130
     847.84998        1.98244        2.07400       24.21880
     848.00238        1.95385        2.06160       22.42190
     848.15479        1.94450        1.98610       19.45310
     848.30719        1.95698        1.92960       23.20310
     848.45959        1.99216        1.93380       25.70310
     848.61200        2.01854        2.00480       28.81250
     848.76440        2.03031        2.02950       29.32810
     848.91681        2.02189        1.97680       29.18750
     849.06921        2.00857        1.93760       27.87500
     849.22162        2.00857        1.94680       25.45310
     849.37402        2.01354        1.95190       23.07810
     849.52643        2.02189        1.94010       21.34380
     849.67877        2.02525        1.90390       20.76560
     849.83118        2.02189        1.87780       18.34380
     849.98358        2.03031        1.86080       21.96880
     850.13599        2.03200        1.85990       21.34380
     850.28839        2.03031        1.84510       24.98440
     850.44080        2.03200        1.79040       22.48440
     850.59320        2.03880        1.76120       24.82810
     850.74561        2.04908        1.77390       25.98440
     850.89801        2.07171        1.84100       30.26560
     851.05042        2.08055        1.88680       29.76560
     851.20282        2.08589        1.89640       32.84380
     851.35522        2.05253        1.86990       34.12500
     851.50763        2.07171        1.85610       38.50000
     851.65997        2.09485        1.85860       37.93750
     851.81238        2.13895        1.87740       41.56250
     851.96478        2.18495        1.89450       43.31250
     852.11719        2.18495        1.90910       46.25000
     852.26959        2.17714        1.92500       44.40630
     852.42200        2.14648        1.91910       44.28130
     852.57440        2.14459        1.89000       43.06250
     852.72681        2.15026        1.86410       41.15630
     852.87921        2.15406        1.87060       47.84380
     853.03162        2.16170        1.89430       51.31250
     853.18402        2.15597        1.91270       52.68750
     853.33643        2.15597        1.90960       46.71870
     853.48877        2.15406        1.90470       43.90620
