~Version Information Section
VERS. 2.0 : CWLS Log ASCII Standard - VERSION 2.0
WRAP. NO  : One Line per depth Step
~Well Information Section
#MNEM.UNIT                     Data                         Information
#----------   ------------------------------------------   ----------------
STRT.M                             200.0000 : Start Depth
STOP.M                            5021.0000 : Stop Depth
NULL.        -9999.00000                        : Null Value
COMP.UPDATED NORSKHYDR                      : Company Name
WELL.        WELL-3                        : Well
FLD .        GLITNE                          : Field
LOC .        META                           : Location
PROV.                                       : Province
CNTY.                                       : County
STAT.        META                           : State/Province
CTRY.        NORWAY                      : Nation
SRVC.        30                             : Logging Company Code
DATE.        10-20-XXXX                    : Run Date
UWI .        WELL0003                       : Unique Well Identifier
API .                                       : API Number
~Parameter Information Block
#MNEM.UNIT       Value                            Description
#---------       ---------                        -------------
~Curve Information Section
#MNEM.UNIT    API CODE                      : Curve description
#---.-----    --------                      : -----------------
DEPT .m                                      : 
Vp   .km/s                                   : Vp(in Km/s)
RHOB .G/C3                                   : Bulk Density
GR   .GAPI                                   : Gamma Ray
~Ascii
# ...
    3079.59570        3.68338        2.59450       33.28130
    3079.74805        3.71707        2.59350       34.78130
    3079.90039        3.74562        2.59070       35.21880
    3080.05273        3.75426        2.59040       38.12030
    3080.20508        3.72844        2.59240       37.62500
    3080.35767        3.74562        2.59580       36.18750
    3080.51001        3.79222        2.59450       34.71880
    3080.66235        3.82194        2.59380       31.82810
    3080.81470        3.80109        2.59230       34.31250
    3080.96729        3.76296        2.59150       39.25000
    3081.11963        3.75427        2.59240       38.75000
    3081.27197        3.76296        2.59850       35.78130
    3081.42432        3.77459        2.60390       30.83600
    3081.57690        3.75427        2.60740       34.78130
    3081.72925        3.70859        2.60990       41.15630
    3081.88159        3.64757        2.61420       50.09380
    3082.03394        3.61250        2.61530       52.55850
    3082.18628        3.60443        2.60420       52.68750
    3082.33887        3.62049        2.58210       45.28120
    3082.49121        3.64757        2.57200       40.78120
    3082.64355        3.66401        2.56850       35.21880
    3082.79590        3.70009        2.57770       35.16110
    3082.94849        3.66394        2.57570       38.16190
    3083.10083        3.62049        2.56800       41.68750
    3083.25317        3.62857        2.56720       41.68750
    3083.40552        3.58588        2.57690       38.21880
    3083.55811        3.61258        2.59600       35.68860
    3083.71045        3.70015        2.60590       36.34060
    3083.86279        3.70015        2.60070       34.40630
    3084.01514        3.75427        2.58930       37.90630
    3084.16748        3.72841        2.58020       33.31480
    3084.32007        3.70864        2.57690       34.71500
    3084.47241        3.73701        2.57480       32.34380
    3084.62476        3.69175        2.57620       34.81250
    3084.77710        3.70859        2.58320       35.77710
    3084.92969        3.70855        2.59920       33.19150
    3085.08203        3.68338        2.60680       35.68750
    3085.23438        3.74562        2.60990       37.31250
    3085.38672        3.71707        2.59750       42.37500
    3085.53931        3.71709        2.58210       41.87000
    3085.69165        3.72845        2.57920       38.77630
    3085.84399        3.73701        2.58760       35.68750
    3085.99634        3.81000        2.59880       33.68750
    3086.14868        3.84003        2.59890       30.78450
    3086.30127        3.85821        2.59160       32.78210
    3086.45361        3.84909        2.58420       33.28130
    3086.60596        3.82194        2.58040       35.71880
    3086.75830        3.76292        2.57760       35.34780
    3086.91089        3.73698        2.57560       37.84380
    3087.06323        3.71707        2.56930       37.84380
    3087.21558        3.70859        2.56540       35.21880
    3087.36792        3.73701        2.56950       37.12500
    3087.52051        3.74562        2.57470       35.15630
    3087.67285        3.74562        2.57740       40.15620
    3087.82520        3.68338        2.57510       38.28130
    3087.97754        3.59646        2.57620       43.21880
    3088.12988        3.54419        2.58650       41.21870
    3088.28247        3.48841        2.59700       38.21880
    3088.43481        3.49591        2.60290       43.18750
    3088.58716        3.52880        2.60560       41.68750
    3088.73950        3.53649        2.60180       47.08410
    3088.89209        3.54419        2.60630       41.09370
    3089.04443        3.58588        2.61800       41.15630
    3089.19678        3.62857        2.62480       36.25000
    3089.34912        3.71707        2.62080       34.84380
    3089.50171        3.76296        2.59990       33.81250
    3089.65405        3.73701        2.58650       36.31250
    3089.80640        3.69175        2.57780       38.25000
    3089.95874        3.61244        2.57800       39.18750
    3090.11108        3.57013        2.58110       38.18750
    3090.26367        3.54419        2.58840       40.65630
    3090.41602        3.50345        2.62520       43.56250
    3090.56836        3.48094        2.64880       44.50000
    3090.72070        3.49595        2.67250       44.62030
    3090.87329        3.52116        2.69630       41.71870
    3091.02563        3.53648        2.72000       40.31250
    3091.17798        3.53648        2.74350       39.12500
    3091.33032        3.57013        2.76730       42.53130
    3091.48291        3.58588        2.79110       45.43750
    3091.63525        3.61244        2.81680       44.50000
    3091.78760        3.68338        2.88630       40.15620
    3091.93994        3.67229        2.92750       37.71880
    3092.09229        3.65577        2.93410       36.28130
    3092.24487        3.64757        2.93600       38.12500
    3092.39722        3.61244        2.93510       38.68750
    3092.54956        3.60445        2.93500       38.21950
    3092.70190        3.59646        2.93720       39.37500
    3092.85449        3.59646        2.93810       40.71880
    3093.00684        3.58588        2.93740       40.09380
    3093.15918        3.58588        2.93450       41.02970
    3093.31152        3.56235        2.93220       39.19050
    3093.46411        3.52880        2.93950       40.68750
    3093.61646        3.54419        2.95610       37.18750
    3093.76880        3.53648        2.99990       41.65630
    3093.92114        3.54417        3.12270       39.22260
    3094.07349        3.57013        3.18980       44.78130
    3094.22607        3.60443        3.19990       39.21880
    3094.37842        3.62857        3.16210       44.12500
    3094.53076        3.59651        3.03640       39.56980
    3094.68311        3.61244        2.96480       41.06250
    3094.83569        3.64757        2.84810       40.18750
    3094.98804        3.63940        2.77410       37.71880
    3095.14038        3.68331        2.73350       37.81230
    3095.29272        3.74552        2.82560       36.31490
    3095.44531        3.66401        2.99620       40.28120
    3095.59766        3.57799        3.27010       38.21880
    3095.75000        3.50345        3.14440       40.18750
    3095.90234        3.46370        2.49330       40.18750
    3096.05469        3.47350        2.05240       38.65630
    3096.20728        3.50345        1.95120       36.18750
    3096.35962        3.54419        1.95560       32.71880
    3096.51196        3.55450        2.04220       36.21320
    3096.66431        3.57013        2.21160       39.25000
    3096.81689        3.55452        2.38180       40.34380
    3096.96924        3.54419        2.48180       39.71880
    3097.12158        3.54419        2.51440       33.72830
    3097.27393        3.55450        2.52910       36.08990
    3097.42651        3.52880        2.54220       37.15620
    3097.57886        3.57799        2.55550       37.62500
    3097.73120        3.53648        2.57220       35.65630
    3097.88354        3.52880        2.59010       33.68750
    3098.03589        3.53652        2.60620       32.25010
    3098.18848        3.56231        2.61920       32.34380
    3098.34082        3.60443        2.62300       30.90620
    3098.49316        3.61244        2.61420       31.87500
    3098.64551        3.59639        2.60570       27.78360
    3098.79810        3.55453        2.60110       29.25710
    3098.95044        3.56231        2.60240       33.71870
    3099.10278        3.55452        2.65300       37.25000
    3099.25513        3.55452        2.78800       36.71880
    3099.40771        3.57799        2.96580       33.21410
    3099.56006        3.57799        3.18350       30.31250
    3099.71240        3.57013        3.30090       29.37500
    3099.86475        3.55841        3.29820       30.82810
