~Version Information Section
VERS. 2.0 : CWLS Log ASCII Standard - VERSION 2.0
WRAP. NO  : One Line per depth Step
~Well Information Section
#MNEM.UNIT                     Data                         Information
#----------   ------------------------------------------   ----------------
STRT.M                             200.0000 : Start Depth
STOP.M                            5021.0000 : Stop Depth
NULL.        -9999.00000                        : Null Value
COMP.UPDATED NORSKHYDR                      : Company Name
WELL.        WELL-3                        : Well
FLD .        GLITNE                          : Field
LOC .        META                           : Location
PROV.                                       : Province
CNTY.                                       : County
STAT.        META                           : State/Province
CTRY.        NORWAY                      : Nation
SRVC.        30                             : Logging Company Code
DATE.        10-20-XXXX                    : Run Date
UWI .        WELL0003                       : Unique Well Identifier
API .                                       : API Number
~Parameter Information Block
#MNEM.UNIT       Value                            Description
#---------       ---------                        -------------
~Curve Information Section
#MNEM.UNIT    API CODE                      : Curve description
#---.-----    --------                      : -----------------
DEPT .m                                      : 
Vp   .km/s                                   : Vp(in Km/s)
RHOB .G/C3                                   : Bulk Density
GR   .GAPI                                   : Gamma Ray
~Ascii
# ...
    4672.48047        4.45877        2.11560       30.09940
    4672.63281        4.45877        2.12180       31.26810
    4672.78516        4.45877        2.13300       31.17300
    4672.93750        4.45877        2.13980       29.65970
    4673.08984        4.45877        2.12940       27.37370
    4673.24219        4.45450        2.11890       25.21100
    4673.39502        4.44640        2.11720       24.21920
    4673.54736        4.43658        2.11100       24.47420
    4673.69971        4.43314        2.11170       25.87670
    4673.85205        4.43315        2.09860       27.34520
    4674.00439        4.44163        2.10250       28.67420
    4674.15674        4.44592        2.10380       28.40670
    4674.30908        4.44590        2.11350       26.91170
    4674.46143        4.43742        2.13030       24.94090
    4674.61377        4.44363        2.13330       24.48190
    4674.76660        4.45546        2.12170       26.08490
    4674.91895        4.45877        2.11460       28.08360
    4675.07129        4.45877        2.11890       27.75310
    4675.22363        4.45877        2.12780       25.20490
    4675.37598        4.45875        2.11530       22.39440
    4675.52832        4.45021        2.09900       20.32790
    4675.68066        4.44592        2.10270       18.71260
    4675.83301        4.45443        2.11060       17.90880
    4675.98584        4.45877        2.12670       17.85590
    4676.13818        4.45877        2.11200       18.54370
    4676.29053        4.45876        2.09900       19.87500
    4676.44287        4.45872        2.09150       22.60940
    4676.59521        4.47152        2.11300       24.54680
    4676.74756        4.46933        2.13620       25.10020
    4676.89990        4.46491        2.13140       24.23950
    4677.05225        4.46056        2.11190       22.26820
    4677.20459        4.45831        2.10800       21.38110
    4677.35742        4.45823        2.11440       21.36630
    4677.50977        4.45815        2.13040       22.38030
    4677.66211        4.45808        2.13060       22.83070
    4677.81445        4.45800        2.14000       22.73710
    4677.96680        4.45792        2.13710       22.59510
    4678.11914        4.45784        2.12620       22.66210
    4678.27148        4.45776        2.11390       23.12340
    4678.42383        4.45768        2.10060       24.41200
    4678.57617        4.45761        2.10670       25.93610
    4678.72900        4.45131        2.11010       26.85700
    4678.88135        4.44577        2.11910       26.63640
    4679.03369        4.44452        2.14390       26.28910
    4679.18604        4.45299        2.14840       27.30610
    4679.33838        4.45723        2.13890       30.08430
    4679.49072        4.47004        2.12560       30.61010
    4679.64307        4.48078        2.13780       30.33640
    4679.79541        4.48289        2.15040       30.25730
    4679.94824        4.48281        2.14770       30.56410
    4680.10059        4.48273        2.15170       30.91840
    4680.25293        4.48265        2.15430       31.00650
    4680.40527        4.48257        2.15620       30.86590
    4680.55762        4.48249        2.14520       29.53360
    4680.70996        4.48241        2.12800       28.41540
    4680.86230        4.48233        2.12340       27.94960
    4681.01465        4.48225        2.13280       27.41360
    4681.16699        4.48217        2.14770       27.11800
    4681.31982        4.48209        2.16180       27.27580
    4681.47217        4.48201        2.15110       28.43900
    4681.62451        4.48193        2.14400       28.72710
    4681.77686        4.48187        2.13300       28.58370
    4681.92920        4.49439        2.13980       28.79750
    4682.08154        4.50148        2.13820       30.47350
    4682.23389        4.49705        2.14360       31.83120
    4682.38623        4.48642        2.13820       31.71880
    4682.53857        4.48171        2.12530       29.86350
    4682.69141        4.48138        2.12300       28.72630
    4682.84375        4.48130        2.11330       28.84030
    4682.99609        4.48122        2.12110       28.60550
    4683.14844        4.48114        2.11990       27.90430
    4683.30078        4.48106        2.11850       25.85570
    4683.45312        4.48098        2.11840       25.05910
    4683.60547        4.48090        2.10950       25.16330
    4683.75781        4.48082        2.11280       25.76120
    4683.91016        4.48074        2.11730       26.39160
    4684.06299        4.48067        2.14360       26.90880
    4684.21533        4.48059        2.13890       27.21000
    4684.36768        4.48051        2.12370       27.47330
    4684.52002        4.48042        2.10810       27.71040
    4684.67236        4.48034        2.11360       28.30210
    4684.82471        4.48026        2.13140       29.23630
    4684.97705        4.48019        2.13640       30.51040
    4685.12939        4.48011        2.14800       31.77630
    4685.28223        4.48003        2.15210       32.85380
    4685.43457        4.47995        2.15420       32.77850
    4685.58691        4.47987        2.14800       32.49620
    4685.73926        4.47979        2.14500       32.68890
    4685.89160        4.47971        2.14940       33.09760
    4686.04395        4.47965        2.16500       32.62780
    4686.19629        4.48823        2.15830       31.58120
    4686.34863        4.49108        2.15780       30.41310
    4686.50098        4.47798        2.13050       28.48180
    4686.65381        4.46306        2.12010       26.24590
    4686.80615        4.45004        2.10120       24.48510
    4686.95850        4.44391        2.09280       24.30190
    4687.11084        4.44978        2.09830       27.10030
    4687.26318        4.45313        2.09770       29.65860
    4687.41553        4.45305        2.09980       29.06090
    4687.56787        4.45297        2.07480       25.24020
    4687.72021        4.45077        2.07230       21.38340
    4687.87256        4.43475        2.07930       16.39860
    4688.02539        4.42718        2.10650       14.06650
    4688.17773        4.42710        2.10670       13.74240
    4688.33008        4.42702        2.11060       13.49080
    4688.48242        4.42694        2.11800       13.98150
    4688.63477        4.42687        2.11520       14.33950
    4688.78711        4.42679        2.09500       14.65310
    4688.93945        4.42671        2.08500       15.20360
    4689.09180        4.42942        2.09210       16.60190
    4689.24463        4.44066        2.10890       17.57410
    4689.39697        4.44988        2.09680       17.33010
    4689.54932        4.45195        2.09650       16.40480
    4689.70166        4.44338        2.08150       15.93420
    4689.85400        4.43899        2.10910       15.93200
    4690.00635        4.43891        2.12340       15.89200
    4690.15869        4.43883        2.15240       15.94990
    4690.31104        4.43876        2.12750       16.39670
    4690.46338        4.43868        2.11460       18.06340
    4690.61621        4.43860        2.10840       20.41370
    4690.76855        4.43852        2.11560       22.32060
    4690.92090        4.44878        2.11230       23.24690
    4691.07324        4.45401        2.12300       23.68380
    4691.22559        4.46491        2.13800       24.20870
    4691.37793        4.46843        2.14870       25.35860
    4691.53027        4.47360        2.13910       27.24780
    4691.68262        4.47670        2.13670       30.25530
    4691.83496        4.47662        2.14320       33.42510
    4691.98779        4.47654        2.15760       35.38490
    4692.14014        4.47646        2.14880       35.42290
    4692.29248        4.47638        2.13830       34.78960
    4692.44482        4.47630        2.12540       33.75670
    4692.59717        4.47620        2.12630       32.18430
    4692.74951        4.45890        2.11610       30.01230
