~Version Information Section
VERS. 2.0 : CWLS Log ASCII Standard - VERSION 2.0
WRAP. NO  : One Line per depth Step
~Well Information Section
#MNEM.UNIT                     Data                         Information
#----------   ------------------------------------------   ----------------
STRT.M                             1360.0000 : Start Depth
STOP.M                            2763.0000 : Stop Depth
NULL.        -999.25                        : Null Value
COMP.UPDATED NORSKHYDR                      : Company Name
WELL.        WELL-1                        : Well
FLD .        GLITNE                          : Field
LOC .        META                           : Location
PROV.                                       : Province
CNTY.                                       : County
STAT.        META                           : State/Province
CTRY.        NORWAY                         : Nation
SRVC.        30                             : Logging Company Code
DATE.        11-20-XXXX                    : Run Date
UWI .        WELL0001                       : Unique Well Identifier
API .                                       : API Number
~Parameter Information Block
#MNEM.UNIT       Value                            Description
#---------       ---------                        -------------
~Curve Information Section
#MNEM.UNIT    API CODE                      : Curve description
#---.-----    --------                      : -----------------
DEPT .M                                      : 
Vp   .KM/S                                   : Vp
RHOB .G/C3                                   : Bulk Density
GR   .GAPI                                   : Gamma Ray
~Ascii
# ...
    1460.62500        2.28347        2.17360       49.83890
    1460.75000        2.28523        2.17650       50.47970
    1460.87500        2.27850        2.18370       49.90430
    1461.00000        2.29121        2.19010       54.24320
    1461.12500        2.30227        2.19110       56.57350
    1461.25000        2.30695        2.18950       55.49950
    1461.37500        2.31347        2.17390       53.82920
    1461.50000        2.31347        2.16510       49.57440
    1461.62500        2.30253        2.16380       48.04750
    1461.75000        2.29589        2.16750       51.23880
    1461.87500        2.30469        2.16910       54.64400
    1462.00000        2.32723        2.13870       55.58380
    1462.12500        2.34006        2.13340       57.42920
    1462.25000        2.32916        2.12550       54.22230
    1462.37500        2.30848        2.13020       55.50970
    1462.50000        2.28053        2.14870       57.65590
    1462.62500        2.25466        2.14070       59.64070
    1462.75000        2.24138        2.14380       61.58180
    1462.87500        2.24307        2.14700       60.42840
    1463.00000        2.24935        2.14750       60.63530
    1463.12500        2.26318        2.14860       60.00020
    1463.25000        2.28783        2.15350       60.07990
    1463.37500        2.32441        2.14710       60.59220
    1463.50000        2.37045        2.14360       58.18750
    1463.62500        2.40497        2.14370       58.18750
    1463.75000        2.41976        2.14670       56.86940
    1463.87500        2.41236        2.15160       55.00430
    1464.00000        2.38384        2.15620       53.01690
    1464.12500        2.34202        2.15300       51.28520
    1464.25000        2.30927        2.14980       50.67010
    1464.37500        2.27743        2.15030       52.88150
    1464.50000        2.26828        2.15230       52.83210
    1464.62500        2.26997        2.15190       51.94330
    1464.75000        2.27157        2.14870       51.49270
    1464.87500        2.26785        2.14840       51.75660
    1465.00000        2.25923        2.14280       53.14070
    1465.12500        2.25778        2.13710       55.69600
    1465.25000        2.26303        2.13390       56.06020
    1465.37500        2.27714        2.13110       54.94150
    1465.50000        2.29605        2.13590       54.05380
    1465.62500        2.29605        2.14600       53.82310
    1465.75000        2.30624        2.15330       54.10590
    1465.87500        2.29209        2.15810       53.99920
    1466.00000        2.27292        2.16180       52.83120
    1466.12500        2.25586        2.16020       51.53540
    1466.25000        2.23680        2.15400       51.85440
    1466.37500        2.23344        2.15350       50.77790
    1466.50000        2.22437        2.15180       48.84380
    1466.62500        2.21443        2.14840       49.33800
    1466.75000        2.21491        2.14790       51.78070
    1466.87500        2.23154        2.14150       53.96800
    1467.00000        2.25524        2.13930       52.40450
    1467.12500        2.32314        2.13560       46.11310
    1467.25000        2.38590        2.13150       40.70750
    1467.37500        2.43140        2.12790       38.11070
    1467.50000        2.45574        2.12310       38.12960
    1467.62500        2.46027        2.12620       39.32900
    1467.75000        2.43408        2.14160       41.58460
    1467.87500        2.37104        2.16860       44.67970
    1468.00000        2.32104        2.20120       45.90360
    1468.12500        2.28480        2.22800       46.79840
    1468.25000        2.26079        2.22320       47.85670
    1468.37500        2.25555        2.19570       46.69490
    1468.50000        2.23856        2.16640       47.59210
    1468.62500        2.23104        2.14320       48.20600
    1468.75000        2.22984        2.13120       49.35780
    1468.87500        2.22682        2.13280       50.11860
    1469.00000        2.21825        2.13280       49.34220
    1469.12500        2.22990        2.13410       48.85520
    1469.25000        2.24630        2.13200       50.12210
    1469.37500        2.25389        2.12670       51.96600
    1469.50000        2.25975        2.12050       53.48070
    1469.62500        2.26793        2.11570       54.12870
    1469.75000        2.27432        2.11670       53.89710
    1469.87500        2.26565        2.11720       53.64080
    1470.00000        2.25147        2.12170       54.97470
    1470.12500        2.23623        2.13090       55.93170
    1470.25000        2.22307        2.13910       55.32760
    1470.37500        2.21602        2.15030       52.91240
    1470.50000        2.22431        2.15230       50.19550
    1470.62500        2.24534        2.15230       49.33290
    1470.75000        2.26885        2.15170       50.17740
    1470.87500        2.28805        2.14940       49.93010
    1471.00000        2.30726        2.14300       47.88810
    1471.12500        2.33891        2.13810       45.70500
    1471.25000        2.35559        2.13900       44.98730
    1471.37500        2.35664        2.14540       46.43170
    1471.50000        2.35013        2.15960       48.67720
    1471.62500        2.33269        2.18560       51.19470
    1471.75000        2.30709        2.21760       53.19070
    1471.87500        2.29640        2.24700       52.70370
    1472.00000        2.29262        2.25180       53.57950
    1472.12500        2.28777        2.23050       54.86630
    1472.25000        2.28436        2.19420       56.62810
    1472.37500        2.28369        2.16690       58.76770
    1472.50000        2.28560        2.15670       60.67550
    1472.62500        2.28912        2.15670       58.80440
    1472.75000        2.29111        2.15820       56.93330
    1472.87500        2.29288        2.15570       54.04340
    1473.00000        2.29312        2.14820       52.42620
    1473.12500        2.29060        2.14490       53.68130
    1473.25000        2.28532        2.13900       56.73150
    1473.37500        2.28354        2.13670       56.39330
    1473.50000        2.27637        2.14020       56.31250
    1473.62500        2.27734        2.14610       55.85680
    1473.75000        2.28315        2.14450       55.99350
    1473.87500        2.28294        2.14450       57.91330
    1474.00000        2.28119        2.14080       59.04110
    1474.12500        2.28573        2.14130       59.45550
    1474.25000        2.28147        2.14400       59.26680
    1474.37500        2.28237        2.14300       57.85340
    1474.50000        2.29003        2.14620       55.23490
    1474.62500        2.28303        2.14500       52.48430
    1474.75000        2.27779        2.14240       51.74100
    1474.87500        2.28236        2.13990       53.11480
    1475.00000        2.27713        2.13980       55.81800
    1475.12500        2.26702        2.14450       58.64230
    1475.25000        2.26407        2.14450       60.13450
    1475.37500        2.26407        2.14450       58.46850
    1475.50000        2.26247        2.14170       58.32000
    1475.62500        2.26197        2.13870       57.49830
    1475.75000        2.26280        2.13910       57.86690
    1475.87500        2.26407        2.14230       59.09990
    1476.00000        2.26315        2.14550       58.36730
    1476.12500        2.24436        2.14760       58.85430
    1476.25000        2.24118        2.14770       59.53250
    1476.37500        2.23809        2.14560       58.84320
    1476.50000        2.23239        2.14270       57.35420
    1476.62500        2.22571        2.14590       56.19290
    1476.75000        2.21906        2.14380       55.85960
    1476.87500        2.20932        2.14360       54.79410
    1477.00000        2.22853        2.14330       54.23690
    1477.12500        2.24324        2.14090       53.60150
    1477.25000        2.24324        2.14250       54.38150
