~Version Information Section
VERS. 2.0 : CWLS Log ASCII Standard - VERSION 2.0
WRAP. NO  : One Line per depth Step
~Well Information Section
#MNEM.UNIT                     Data                         Information
#----------   ------------------------------------------   ----------------
STRT.M                             200.0000 : Start Depth
STOP.M                            5021.0000 : Stop Depth
NULL.        -9999.00000                        : Null Value
COMP.UPDATED NORSKHYDR                      : Company Name
WELL.        WELL-3                        : Well
FLD .        GLITNE                          : Field
LOC .        META                           : Location
PROV.                                       : Province
CNTY.                                       : County
STAT.        META                           : State/Province
CTRY.        NORWAY                      : Nation
SRVC.        30                             : Logging Company Code
DATE.        10-20-XXXX                    : Run Date
UWI .        WELL0003                       : Unique Well Identifier
API .                                       : API Number
~Parameter Information Block
#MNEM.UNIT       Value                            Description
#---------       ---------                        -------------
~Curve Information Section
#MNEM.UNIT    API CODE                      : Curve description
#---.-----    --------                      : -----------------
DEPT .m                                      : 
Vp   .km/s                                   : Vp(in Km/s)
RHOB .G/C3                                   : Bulk Density
GR   .GAPI                                   : Gamma Ray
~Ascii
# ...
    1486.71082        2.12035        2.01390       44.75000
    1486.86316        2.07347        2.02190       49.90630
    1487.01562        2.03200        2.02160       55.71880
    1487.16797        1.97282        2.04280       48.09370
    1487.32043        2.00526        2.05120       49.18750
    1487.47278        2.07171        2.08540       45.00000
    1487.62524        2.12595        2.09740       46.78270
    1487.77759        2.20271        2.11540       48.59370
    1487.93005        2.22888        2.11570       51.03270
    1488.08240        2.22279        2.11780       52.84380
    1488.23474        2.16552        2.09970       48.90440
    1488.38721        2.13895        2.08170       46.53120
    1488.53955        2.12035        2.07320       41.21870
    1488.69202        2.04392        1.99780       43.00000
    1488.84436        2.05425        1.96500       43.00000
    1488.99683        2.06819        1.94740       46.46880
    1489.14917        2.01354        2.01650       48.56250
    1489.30164        2.06644        2.05180       51.46880
    1489.45398        2.13520        2.04480       52.15620
    1489.60645        2.10576        2.02230       50.15500
    1489.75879        2.18104        2.02540       48.59370
    1489.91125        2.19081        2.06950       51.56130
    1490.06360        2.16554        2.09550       50.12500
    1490.21594        2.20666        2.09950       45.90020
    1490.36841        2.16170        2.07540       38.37500
    1490.52075        2.20870        2.07540       31.09380
    1490.67322        2.22279        2.05530       25.31250
    1490.82556        2.26617        2.04530       21.84370
    1490.97803        2.26197        2.04530       20.03130
    1491.13037        2.27251        2.04730       20.82810
    1491.28284        2.27888        2.04730       22.20310
    1491.43518        2.28529        2.04130       25.29690
    1491.58765        2.28529        2.03730       25.85690
    1491.73999        2.29605        2.04730       22.81250
    1491.89246        2.30254        2.05740       23.90400
    1492.04480        2.28958        2.06340       21.09380
    1492.19714        2.29172        2.04730       23.45410
    1492.34961        2.27888        2.02630       24.68750
    1492.50195        2.27888        2.01420       26.35940
    1492.65442        2.28958        2.01320       24.62500
    1492.80676        2.30691        2.02530       19.90630
    1492.95923        2.30691        2.03540       22.28130
    1493.11157        2.30691        2.04740       25.92190
    1493.26404        2.27888        2.03940       27.14060
    1493.41638        2.26197        2.02730       23.03130
    1493.56885        2.24530        2.02130       21.70590
    1493.72119        2.23912        2.03030       25.15630
    1493.87366        2.22484        2.03540       28.06210
    1494.02600        2.24945        2.04940       27.53130
    1494.17834        2.24943        2.05540       23.43610
    1494.33081        2.23501        2.04940       21.68750
    1494.48315        2.21874        2.03230       18.18750
    1494.63562        2.20870        2.01130       19.40630
    1494.78796        2.20670        2.01630       22.42190
    1494.94043        2.20670        2.02830       25.25000
    1495.09277        2.20870        2.03330       26.34380
    1495.24524        2.20271        2.02430       22.76560
    1495.39758        2.20670        2.02330       23.95310
    1495.55005        2.19676        2.01930       22.20410
    1495.70239        2.19676        2.02930       23.42190
    1495.85486        2.19281        2.02930       21.76660
    1496.00720        2.20072        2.03430       22.95310
    1496.15955        2.20071        2.03330       23.48440
    1496.31201        2.19084        2.04140       23.46880
    1496.46436        2.16939        2.04940       19.37500
    1496.61682        2.15597        2.03940       20.57810
    1496.76917        2.15406        2.02340       22.39060
    1496.92163        2.15979        2.02440       29.34370
    1497.07397        2.16170        2.03040       27.57810
    1497.22644        2.18495        2.04350       25.71880
    1497.37878        2.20870        2.04350       21.68750
    1497.53125        2.22279        2.05350       22.21740
    1497.68359        2.21874        2.04340       20.50000
    1497.83606        2.21269        2.03340       19.99770
    1497.98840        2.20072        2.01240       17.10940
    1498.14075        2.20073        2.01140       22.90760
    1498.29321        2.20670        2.01040       24.57810
    1498.44556        2.20870        2.01840       26.35940
    1498.59802        2.21270        2.01640       22.29690
    1498.75037        2.21270        2.01440       22.92190
    1498.90283        2.22279        2.02040       23.96880
    1499.05518        2.22279        2.02840       26.81250
    1499.20764        2.23912        2.03240       27.31250
    1499.35999        2.23297        2.02140       28.54690
    1499.51245        2.23912        2.01440       26.35800
    1499.66479        2.23912        2.00940       24.70310
    1499.81726        2.23911        2.00540       22.34600
    1499.96960        2.22482        2.01040       25.09380
    1500.12195        2.21269        2.01940       26.18710
    1500.27441        2.19281        2.01940       25.64060
    1500.42676        2.18104        2.02040       22.20310
    1500.57922        2.16939        2.01740       22.81250
    1500.73157        2.18691        2.02440       22.78120
    1500.88403        2.20271        2.01740       23.42190
    1501.03638        2.20670        2.01940       22.29690
    1501.18884        2.21270        2.01340       20.60940
    1501.34119        2.21270        2.01340       20.50000
    1501.49365        2.20869        2.01440       18.67600
    1501.64600        2.20670        2.02340       23.87500
    1501.79834        2.20670        2.03050       24.50140
    1501.95081        2.20670        2.02640       26.26560
    1502.10315        2.20072        2.02550       23.43890
    1502.25562        2.19676        2.02250       25.23440
    1502.40796        2.19676        2.01140       25.92190
    1502.56042        2.20072        1.99840       25.20310
    1502.71277        2.19281        1.98730       23.98440
    1502.86523        2.20870        1.99840       21.64060
    1503.01758        2.21673        2.01040       27.00000
    1503.17004        2.22888        2.02750       28.09370
    1503.32239        2.23912        2.04180       26.87500
    1503.47485        2.24117        2.05190       21.51420
    1503.62720        2.23297        2.03790       19.79690
    1503.77954        2.22480        2.02880       20.92240
    1503.93201        2.20670        2.01580       21.53120
    1504.08435        2.19281        2.00880       22.23440
    1504.23682        2.17714        1.99380       25.23440
    1504.38916        2.15979        1.98780       30.53130
    1504.54163        2.16939        1.99670       29.82810
    1504.69397        2.16939        2.00580       27.46870
    1504.84644        2.16554        2.00390       19.26560
    1504.99878        2.17714        2.00790       20.50000
    1505.15125        2.17133        2.00390       22.76560
    1505.30359        2.16554        2.01500       26.82810
    1505.45605        2.16171        2.00700       24.46970
    1505.60840        2.16939        1.99490       25.64060
    1505.76074        2.16555        1.98780       23.33010
    1505.91321        2.17133        1.98780       25.75000
    1506.06555        2.19084        2.00500       24.71880
    1506.21802        2.20670        2.02110       28.71870
    1506.37036        2.20670        2.04020       26.82810
    1506.52283        2.21673        2.02910       23.23440
    1506.67517        2.20271        2.01310       21.04690
    1506.82764        2.20271        1.99100       19.90630
    1506.97998        2.19281        1.98780       24.56250
