~Version Information Section
VERS. 2.0 : CWLS Log ASCII Standard - VERSION 2.0
WRAP. NO  : One Line per depth Step
~Well Information Section
#MNEM.UNIT                     Data                         Information
#----------   ------------------------------------------   ----------------
STRT.M                             1360.0000 : Start Depth
STOP.M                            2763.0000 : Stop Depth
NULL.        -999.25                        : Null Value
COMP.UPDATED NORSKHYDR                      : Company Name
WELL.        WELL-1                        : Well
FLD .        GLITNE                          : Field
LOC .        META                           : Location
PROV.                                       : Province
CNTY.                                       : County
STAT.        META                           : State/Province
CTRY.        NORWAY                         : Nation
SRVC.        30                             : Logging Company Code
DATE.        11-20-XXXX                    : Run Date
UWI .        WELL0001                       : Unique Well Identifier
API .                                       : API Number
~Parameter Information Block
#MNEM.UNIT       Value                            Description
#---------       ---------                        -------------
~Curve Information Section
#MNEM.UNIT    API CODE                      : Curve description
#---.-----    --------                      : -----------------
DEPT .M                                      : 
Vp   .KM/S                                   : Vp
RHOB .G/C3                                   : Bulk Density
GR   .GAPI                                   : Gamma Ray
~Ascii
# ...
    2381.87500        3.23316        2.22740       31.30600
    2382.00000        3.10972        2.26470       37.98300
    2382.12500        3.01040        2.30260       46.22760
    2382.25000        2.97277        2.33570       53.99860
    2382.37500        2.95543        2.35230       59.15810
    2382.50000        2.95915        2.33090       59.58740
    2382.62500        3.04789        2.28760       53.71140
    2382.75000        3.11495        2.25210       46.58580
    2382.87500        3.10832        2.22040       40.61770
    2383.00000        3.09455        2.19880       37.17940
    2383.12500        3.08278        2.19120       35.75330
    2383.25000        3.06738        2.17680       35.41110
    2383.37500        3.08169        2.17730       36.89770
    2383.50000        3.12954        2.18800       37.19100
    2383.62500        3.12430        2.21110       39.07470
    2383.75000        3.10300        2.23830       40.85530
    2383.87500        3.08894        2.25210       41.87790
    2384.00000        3.07929        2.25530       43.03460
    2384.12500        3.12460        2.23980       44.23930
    2384.25000        3.14046        2.23050       43.32460
    2384.37500        3.13408        2.22220       42.11750
    2384.50000        3.10148        2.20760       41.18280
    2384.62500        3.02826        2.19960       40.83850
    2384.75000        2.88289        2.19310       41.86370
    2384.87500        2.83248        2.19730       44.63470
    2385.00000        2.79900        2.20700       44.54130
    2385.12500        2.80636        2.22210       43.65310
    2385.25000        2.84760        2.24700       43.98930
    2385.37500        2.88775        2.28220       46.70660
    2385.50000        2.91322        2.28850       49.98750
    2385.62500        2.90079        2.28080       52.53720
    2385.75000        2.89515        2.25990       52.92790
    2385.87500        2.90736        2.23930       51.75040
    2386.00000        2.92930        2.26330       49.97050
    2386.12500        2.93075        2.28890       48.15070
    2386.25000        3.00073        2.34770       47.19050
    2386.37500        2.96476        2.37630       50.28950
    2386.50000        2.84060        2.37410       54.94610
    2386.62500        2.70305        2.37610       61.39550
    2386.75000        2.62183        2.36810       70.19540
    2386.87500        2.60803        2.38140       72.55350
    2387.00000        2.65308        2.37920       69.89370
    2387.12500        2.73505        2.35430       60.66150
    2387.25000        2.83372        2.31370       50.27630
    2387.37500        2.92584        2.27750       43.38350
    2387.50000        2.98871        2.28870       41.07810
    2387.62500        3.02675        2.29740       44.76910
    2387.75000        3.08599        2.30540       46.89470
    2387.87500        3.12357        2.30200       46.97740
    2388.00000        3.13536        2.27780       45.27510
    2388.12500        3.14049        2.25210       42.72400
    2388.25000        3.15717        2.22210       41.39120
    2388.37500        3.09375        2.19950       39.80050
    2388.50000        3.06302        2.18410       36.27000
    2388.62500        3.00030        2.17200       32.12340
    2388.75000        2.91700        2.15800       28.70270
    2388.87500        2.90981        2.15320       26.85330
    2389.00000        2.86771        2.15890       28.26310
    2389.12500        2.84233        2.17750       31.64170
    2389.25000        2.84594        2.20250       36.56380
    2389.37500        2.86547        2.22240       40.77880
    2389.50000        2.88993        2.22080       42.14310
    2389.62500        2.94869        2.21010       40.91280
    2389.75000        2.99560        2.19540       38.61690
    2389.87500        2.95435        2.18430       38.84170
    2390.00000        2.90049        2.17370       40.38400
    2390.12500        2.85959        2.15340       42.53560
    2390.25000        2.80859        2.14060       45.37230
    2390.37500        2.79933        2.14950       48.11490
    2390.50000        2.83874        2.16940       49.33610
    2390.62500        2.86908        2.18880       48.49460
    2390.75000        2.88458        2.19830       46.23960
    2390.87500        2.88371        2.19350       43.91210
    2391.00000        2.83828        2.17780       43.45080
    2391.12500        2.82782        2.16060       44.35900
    2391.25000        2.81644        2.13780       43.37950
    2391.37500        2.82079        2.11510       40.90300
    2391.50000        2.83243        2.10250       37.51440
    2391.62500        2.83017        2.09130       34.07400
    2391.75000        2.84507        2.08420       33.53580
    2391.87500        2.83388        2.07990       34.83680
    2392.00000        2.82965        2.07810       37.34300
    2392.12500        2.84821        2.07780       38.80700
    2392.25000        2.88727        2.07620       37.84250
    2392.37500        2.91845        2.08420       35.25370
    2392.50000        2.93577        2.09590       32.91980
    2392.62500        2.93395        2.11320       30.36880
    2392.75000        2.94052        2.12910       28.42850
    2392.87500        2.95756        2.13550       27.26410
    2393.00000        2.97384        2.14190       26.94410
    2393.12500        2.99029        2.14260       29.30220
    2393.25000        3.01518        2.15350       30.37540
    2393.37500        3.03186        2.16730       31.14500
    2393.50000        3.02345        2.17810       33.13860
    2393.62500        2.98413        2.18720       36.71110
    2393.75000        2.92385        2.17440       40.45380
    2393.87500        2.86055        2.16410       42.32490
    2394.00000        2.81166        2.15080       39.87560
    2394.12500        2.80241        2.13710       36.50870
    2394.25000        2.80513        2.12750       33.06920
    2394.37500        2.79049        2.11790       29.89280
    2394.50000        2.80497        2.13360       29.80310
    2394.62500        2.79129        2.14660       29.85640
    2394.75000        2.81488        2.15940       30.74060
    2394.87500        2.87919        2.16950       31.56710
    2395.00000        2.95269        2.16790       31.85750
    2395.12500        2.97084        2.16630       31.76980
    2395.25000        2.91834        2.16740       31.25720
    2395.37500        2.89796        2.16990       30.15650
    2395.50000        2.85246        2.17060       29.23880
    2395.62500        2.81461        2.16570       29.06550
    2395.75000        2.81969        2.15290       29.57540
    2395.87500        2.84261        2.13090       29.29350
    2396.00000        2.91705        2.14510       28.59440
    2396.12500        3.15662        2.19060       27.16680
    2396.25000        3.51592        2.27320       25.38910
    2396.37500        3.98800        2.40090       24.07810
    2396.50000        4.63444        2.50500       24.00730
    2396.62500        5.30895        2.58160       23.12300
    2396.75000        5.27378        2.61050       23.62920
    2396.87500        5.20703        2.61940       23.59460
    2397.00000        5.11034        2.62890       23.12760
    2397.12500        4.96618        2.61930       22.84630
    2397.25000        5.04199        2.60810       23.32050
    2397.37500        5.08998        2.59810       20.52750
    2397.50000        5.10796        2.58590       19.34000
    2397.62500        5.17510        2.57510       17.76500
    2397.75000        5.01931        2.56390       16.84270
    2397.87500        4.42076        2.48540       18.92550
    2398.00000        4.00938        2.39550       22.01410
    2398.12500        3.60661        2.30200       25.25220
    2398.25000        3.25585        2.22840       28.17990
    2398.37500        3.02646        2.18920       29.78970
    2398.50000        2.91973        2.17980       29.98770
