~Version Information Section
VERS. 2.0 : CWLS Log ASCII Standard - VERSION 2.0
WRAP. NO  : One Line per depth Step
~Well Information Section
#MNEM.UNIT                     Data                         Information
#----------   ------------------------------------------   ----------------
STRT.M                             2100.0000 : Start Depth
STOP.M                            2300.0000 : Stop Depth
NULL.        -999.25                        : Null Value
COMP.UPDATED NORSKHYDR                      : Company Name
WELL.        WELL-5                        : Well
FLD .        GLITNE                         : Field
LOC .        META                           : Location
PROV.                                       : Province
CNTY.                                       : County
STAT.        META                           : State/Province
CTRY.        NORWAY                       : Nation
SRVC.        30                             : Logging Company Code
DATE.        10-20-XXXX                    : Run Date
UWI .        WELL0005                       : Unique Well Identifier
API .                                       : API Number
~Parameter Information Block
#MNEM.UNIT       Value                            Description
#---------       ---------                        -------------
~Curve Information Section
#MNEM.UNIT    API CODE                      : Curve description
#---.-----    --------                      : -----------------
DEPT .m                                      : 
Vp   .km/s                                   : Vp(in Km/s)
Vs   .km/s                                   : Vs(in km/s)
GR   .GAPI                                   : Gamma Ray
RHOB .G/C3                                   : Bulk Density
~Ascii
# ...
   2.1905977e+03   1.0033300e+02   2.0822900e+02   7.2874000e+01   2.2780000e+00
   2.1907500e+03   1.0070000e+02   2.0744400e+02   8.0216000e+01   2.3070000e+00
   2.1909023e+03   1.0116200e+02   2.0668000e+02   8.1847000e+01   2.3030000e+00
   2.1910549e+03   1.0146100e+02   2.0636400e+02   8.1233000e+01   2.2980000e+00
   2.1912073e+03   1.0158000e+02   2.0660100e+02   8.3233000e+01   2.3020000e+00
   2.1913596e+03   1.0158400e+02   2.0712300e+02   8.4347000e+01   2.3010000e+00
   2.1915120e+03   1.0139100e+02   2.0768700e+02   8.0967000e+01   2.2830000e+00
   2.1916643e+03   1.0098500e+02   2.0835900e+02   7.1902000e+01   2.2440000e+00
   2.1918169e+03   1.0025000e+02   2.0944900e+02   6.3747000e+01   2.2050000e+00
   2.1919692e+03   9.9388000e+01   2.0998300e+02   6.1812000e+01   2.1930000e+00
   2.1921216e+03   9.8589000e+01   2.0955800e+02   6.1994000e+01   2.1990000e+00
   2.1922739e+03   9.7876000e+01   2.0857400e+02   6.3110000e+01   2.2070000e+00
   2.1924265e+03   9.7038000e+01   2.0727300e+02   6.6544000e+01   2.2150000e+00
   2.1925789e+03   9.6391000e+01   2.0558500e+02   7.0261000e+01   2.2240000e+00
   2.1927312e+03   9.5862000e+01   2.0332900e+02   7.3039000e+01   2.2400000e+00
   2.1928835e+03   9.5317000e+01   2.0113400e+02   7.5326000e+01   2.2540000e+00
   2.1930361e+03   9.4437000e+01   1.9895800e+02   7.4794000e+01   2.2510000e+00
   2.1931885e+03   9.3648000e+01   1.9706100e+02   7.2515000e+01   2.2340000e+00
   2.1933408e+03   9.3301000e+01   1.9547500e+02   7.1543000e+01   2.2110000e+00
   2.1934932e+03   9.3262000e+01   1.9506400e+02   7.1207000e+01   2.1970000e+00
   2.1936455e+03   9.3162000e+01   1.9465400e+02   6.9749000e+01   2.1940000e+00
   2.1937981e+03   9.3042000e+01   1.9424300e+02   6.6290000e+01   2.1910000e+00
   2.1939504e+03   9.2931000e+01   1.9383300e+02   6.4113000e+01   2.1870000e+00
   2.1941028e+03   9.2879000e+01   1.9342200e+02   6.4871000e+01   2.1840000e+00
   2.1942551e+03   9.2842000e+01   1.9301100e+02   6.4999000e+01   2.1810000e+00
   2.1944077e+03   9.2829000e+01   1.9260100e+02   6.3341000e+01   2.1720000e+00
   2.1945601e+03   9.2848000e+01   1.9219000e+02   6.3479000e+01   2.1620000e+00
   2.1947124e+03   9.2873000e+01   1.9177900e+02   6.4621000e+01   2.1600000e+00
   2.1948647e+03   9.2896000e+01   1.9136900e+02   6.5316000e+01   2.1670000e+00
   2.1950173e+03   9.2918000e+01   1.9095700e+02   6.6722000e+01   2.1790000e+00
   2.1951697e+03   9.2940000e+01   1.9054700e+02   6.8424000e+01   2.1850000e+00
   2.1953220e+03   9.2963000e+01   1.9013700e+02   6.7709000e+01   2.1750000e+00
   2.1954744e+03   9.2985000e+01   1.8972600e+02   6.5350000e+01   2.1610000e+00
   2.1956267e+03   9.3008000e+01   1.8931500e+02   6.5116000e+01   2.1540000e+00
   2.1957793e+03   9.3030000e+01   1.8890500e+02   6.5024000e+01   2.1560000e+00
   2.1959316e+03   9.3053000e+01   1.8849400e+02   6.4885000e+01   2.1670000e+00
   2.1960840e+03   9.3075000e+01   1.8808300e+02   6.5841000e+01   2.1790000e+00
   2.1962363e+03   9.3098000e+01   1.8767300e+02   6.5927000e+01   2.1870000e+00
   2.1963889e+03   9.3120000e+01   1.8726200e+02   6.5421000e+01   2.1850000e+00
   2.1965413e+03   9.3142000e+01   1.8685100e+02   6.5805000e+01   2.1770000e+00
   2.1966936e+03   9.3165000e+01   1.8644100e+02   6.6838000e+01   2.1840000e+00
   2.1968459e+03   9.3187000e+01   1.8603000e+02   6.9164000e+01   2.2150000e+00
   2.1969985e+03   9.3210000e+01   1.8561900e+02   7.1575000e+01   2.2340000e+00
   2.1971509e+03   9.3232000e+01   1.8520900e+02   7.1627000e+01   2.2210000e+00
   2.1973032e+03   9.3255000e+01   1.8479800e+02   6.8697000e+01   2.1950000e+00
   2.1974556e+03   9.3277000e+01   1.8438700e+02   6.5335000e+01   2.1750000e+00
   2.1976079e+03   9.3299000e+01   1.8397700e+02   6.1167000e+01   2.1680000e+00
   2.1977605e+03   9.3322000e+01   1.8356600e+02   5.6564000e+01   2.1690000e+00
   2.1979128e+03   9.3344000e+01   1.8315500e+02   5.6584000e+01   2.1680000e+00
   2.1980652e+03   9.3367000e+01   1.8274500e+02   5.9587000e+01   2.1680000e+00
   2.1982175e+03   9.3389000e+01   1.8233400e+02   6.0857000e+01   2.1690000e+00
   2.1983701e+03   9.3412000e+01   1.8192300e+02   6.0293000e+01   2.1650000e+00
   2.1985225e+03   9.3434000e+01   1.8151300e+02   5.9307000e+01   2.1600000e+00
   2.1986748e+03   9.3457000e+01   1.8110200e+02   5.8655000e+01   2.1610000e+00
   2.1988271e+03   9.3479000e+01   1.8069100e+02   5.8950000e+01   2.1630000e+00
   2.1989797e+03   9.3501000e+01   1.8028100e+02   6.0198000e+01   2.1620000e+00
   2.1991321e+03   9.3524000e+01   1.7987000e+02   6.0808000e+01   2.1600000e+00
   2.1992844e+03   9.3546000e+01   1.7945900e+02   6.0946000e+01   2.1630000e+00
   2.1994368e+03   9.3569000e+01   1.7904900e+02   6.2068000e+01   2.1700000e+00
   2.1995891e+03   9.3591000e+01   1.7863800e+02   6.2870000e+01   2.1740000e+00
   2.1997417e+03   9.3614000e+01   1.7822700e+02   6.4200000e+01   2.1750000e+00
   2.1998940e+03   9.3635000e+01   1.7781700e+02   6.7052000e+01   2.1740000e+00
   2.2000464e+03   9.3657000e+01   1.7740600e+02   6.6475000e+01   2.1700000e+00
   2.2001987e+03   9.3677000e+01   1.7699500e+02   6.4072000e+01   2.1680000e+00
   2.2003513e+03   9.3698000e+01   1.7658500e+02   6.4302000e+01   2.1720000e+00
   2.2005037e+03   9.3726000e+01   1.7617400e+02   6.5744000e+01   2.1780000e+00
   2.2006560e+03   9.3754000e+01   1.7576300e+02   6.6365000e+01   2.1850000e+00
   2.2008083e+03   9.3794000e+01   1.7535300e+02   6.6155000e+01   2.1920000e+00
   2.2009609e+03   9.3878000e+01   1.7494200e+02   6.4347000e+01   2.1950000e+00
   2.2011133e+03   9.3976000e+01   1.7453100e+02   6.1174000e+01   2.1920000e+00
   2.2012656e+03   9.4042000e+01   1.7412100e+02   6.0582000e+01   2.1880000e+00
   2.2014180e+03   9.4141000e+01   1.7371000e+02   6.2076000e+01   2.1880000e+00
   2.2015703e+03   9.4342000e+01   1.7329900e+02   6.2175000e+01   2.1880000e+00
   2.2017229e+03   9.4537000e+01   1.7288900e+02   6.1975000e+01   2.1830000e+00
   2.2018752e+03   9.4709000e+01   1.7247800e+02   6.2009000e+01   2.1790000e+00
   2.2020276e+03   9.4819000e+01   1.7206700e+02   6.2029000e+01   2.1750000e+00
   2.2021799e+03   9.4949000e+01   1.7165700e+02   6.2972000e+01   2.1700000e+00
   2.2023325e+03   9.5129000e+01   1.7124600e+02   6.3659000e+01   2.1670000e+00
   2.2024849e+03   9.5249000e+01   1.7083500e+02   6.3424000e+01   2.1640000e+00
   2.2026372e+03   9.5302000e+01   1.7042500e+02   6.2944000e+01   2.1660000e+00
   2.2027896e+03   9.5336000e+01   1.7081800e+02   6.2873000e+01   2.1720000e+00
   2.2029421e+03   9.5342000e+01   1.7113700e+02   6.3711000e+01   2.1750000e+00
   2.2030945e+03   9.5342000e+01   1.7190600e+02   6.4348000e+01   2.1780000e+00
   2.2032468e+03   9.5173000e+01   1.7290200e+02   6.4185000e+01   2.1840000e+00
   2.2033992e+03   9.4748000e+01   1.7546900e+02   6.3025000e+01   2.1900000e+00
   2.2035515e+03   9.4059000e+01   1.7713700e+02   6.1893000e+01   2.1960000e+00
   2.2037041e+03   9.3780000e+01   1.7840500e+02   6.4229000e+01   2.1970000e+00
   2.2038564e+03   9.4251000e+01   1.7901900e+02   6.7126000e+01   2.1920000e+00
   2.2040088e+03   9.4824000e+01   1.7945000e+02   6.5929000e+01   2.1870000e+00
   2.2041611e+03   9.4992000e+01   1.7979000e+02   6.4871000e+01   2.1900000e+00
   2.2043137e+03   9.4664000e+01   1.7938500e+02   6.5882000e+01   2.2040000e+00
   2.2044661e+03   9.3846000e+01   1.7758500e+02   6.5933000e+01   2.2310000e+00
   2.2046184e+03   9.3171000e+01   1.7299300e+02   6.7033000e+01   2.2610000e+00
   2.2047708e+03   9.2838000e+01   1.6778600e+02   7.2497000e+01   2.2770000e+00
   2.2049233e+03   9.2765000e+01   1.6344300e+02   7.7136000e+01   2.2750000e+00
   2.2050757e+03   9.2983000e+01   1.6222400e+02   7.4051000e+01   2.2530000e+00
   2.2052280e+03   9.3502000e+01   1.6454200e+02   6.7409000e+01   2.2120000e+00
   2.2053804e+03   9.4497000e+01   1.6912600e+02   6.4377000e+01   2.1780000e+00
   2.2055327e+03   9.5374000e+01   1.7668100e+02   6.4264000e+01   2.1690000e+00
