~Version Information Section
VERS. 2.0 : CWLS Log ASCII Standard - VERSION 2.0
WRAP. NO  : One Line per depth Step
~Well Information Section
#MNEM.UNIT                     Data                         Information
#----------   ------------------------------------------   ----------------
STRT.M                             2100.0000 : Start Depth
STOP.M                            2300.0000 : Stop Depth
NULL.        -999.25                        : Null Value
COMP.UPDATED NORSKHYDR                      : Company Name
WELL.        WELL-5                        : Well
FLD .        GLITNE                         : Field
LOC .        META                           : Location
PROV.                                       : Province
CNTY.                                       : County
STAT.        META                           : State/Province
CTRY.        NORWAY                       : Nation
SRVC.        30                             : Logging Company Code
DATE.        10-20-XXXX                    : Run Date
UWI .        WELL0005                       : Unique Well Identifier
API .                                       : API Number
~Parameter Information Block
#MNEM.UNIT       Value                            Description
#---------       ---------                        -------------
~Curve Information Section
#MNEM.UNIT    API CODE                      : Curve description
#---.-----    --------                      : -----------------
DEPT .m                                      : 
Vp   .km/s                                   : Vp(in Km/s)
Vs   .km/s                                   : Vs(in km/s)
GR   .GAPI                                   : Gamma Ray
RHOB .G/C3                                   : Bulk Density
~Ascii
# ...
   2.2660356e+03   1.2316500e+02   3.0437200e+02   6.4920000e+01   2.1090000e+00
   2.2661880e+03   1.2309100e+02   3.1154900e+02   6.6494000e+01   2.1320000e+00
   2.2663403e+03   1.2320400e+02   3.2176700e+02   7.3451000e+01   2.1730000e+00
   2.2664929e+03   1.2304400e+02   3.2569900e+02   8.5687000e+01   2.2120000e+00
   2.2666453e+03   1.2271900e+02   3.2676000e+02   9.2212000e+01   2.2320000e+00
   2.2667976e+03   1.2185000e+02   3.2472200e+02   9.2747000e+01   2.2360000e+00
   2.2669500e+03   1.2143300e+02   3.2257900e+02   9.1846000e+01   2.2390000e+00
   2.2671025e+03   1.2054700e+02   3.1806700e+02   8.8213000e+01   2.2500000e+00
   2.2672549e+03   1.1801500e+02   3.1180900e+02   8.5674000e+01   2.2580000e+00
   2.2674072e+03   1.1638800e+02   3.0611200e+02   8.2971000e+01   2.2410000e+00
   2.2675596e+03   1.1589800e+02   3.0026100e+02   7.5915000e+01   2.1970000e+00
   2.2677119e+03   1.1618300e+02   2.9674800e+02   7.0817000e+01   2.1580000e+00
   2.2678645e+03   1.1648800e+02   2.9447700e+02   7.1713000e+01   2.1550000e+00
   2.2680168e+03   1.1660300e+02   2.9270900e+02   7.4535000e+01   2.1680000e+00
   2.2681692e+03   1.1658400e+02   2.8631100e+02   7.4744000e+01   2.1730000e+00
   2.2683215e+03   1.1627100e+02   2.7781400e+02   7.2447000e+01   2.1720000e+00
   2.2684741e+03   1.1556300e+02   2.6924300e+02   6.8796000e+01   2.1620000e+00
   2.2686265e+03   1.1445200e+02   2.6190800e+02   6.8948000e+01   2.1390000e+00
   2.2687788e+03   1.1346500e+02   2.5681800e+02   7.7327000e+01   2.1200000e+00
   2.2689312e+03   1.1261300e+02   2.5585000e+02   7.6672000e+01   2.1210000e+00
   2.2690837e+03   1.1162500e+02   2.6328100e+02   6.8754000e+01   2.1270000e+00
   2.2692361e+03   1.1035900e+02   2.7203000e+02   6.7403000e+01   2.1260000e+00
   2.2693884e+03   1.0929700e+02   2.7908100e+02   6.6452000e+01   2.1300000e+00
   2.2695408e+03   1.0861600e+02   2.8072900e+02   6.5207000e+01   2.1370000e+00
   2.2696931e+03   1.0816700e+02   2.8083300e+02   6.3994000e+01   2.1460000e+00
   2.2698457e+03   1.0778000e+02   2.7814300e+02   6.2635000e+01   2.1650000e+00
   2.2699980e+03   1.0706800e+02   2.7660400e+02   6.3486000e+01   2.1800000e+00
   2.2701504e+03   1.0641300e+02   2.6937500e+02   6.6324000e+01   2.1640000e+00
   2.2703027e+03   1.0587100e+02   2.6408300e+02   6.9118000e+01   2.1220000e+00
   2.2704553e+03   1.0482400e+02   2.6111700e+02   6.8368000e+01   2.0990000e+00
   2.2706077e+03   1.0362300e+02   2.6187100e+02   6.6243000e+01   2.0990000e+00
   2.2707600e+03   1.0309000e+02   2.6489800e+02   6.4016000e+01   2.1030000e+00
   2.2709124e+03   1.0388000e+02   2.6689600e+02   6.1810000e+01   2.1060000e+00
   2.2710649e+03   1.0510600e+02   2.6509000e+02   6.2780000e+01   2.1110000e+00
   2.2712173e+03   1.0672500e+02   2.5987100e+02   6.3057000e+01   2.1140000e+00
   2.2713696e+03   1.0788400e+02   2.5546300e+02   6.2012000e+01   2.1100000e+00
   2.2715220e+03   1.0832300e+02   2.5150800e+02   6.1618000e+01   2.1080000e+00
   2.2716743e+03   1.0811600e+02   2.4726500e+02   5.9986000e+01   2.1060000e+00
   2.2718269e+03   1.0751300e+02   2.4263600e+02   5.9635000e+01   2.1070000e+00
   2.2719792e+03   1.0744200e+02   2.3848300e+02   6.2663000e+01   2.1120000e+00
   2.2721316e+03   1.0755000e+02   2.3594800e+02   6.3420000e+01   2.1160000e+00
   2.2722839e+03   1.0762800e+02   2.3440800e+02   6.3657000e+01   2.1220000e+00
   2.2724365e+03   1.0744100e+02   2.3340300e+02   6.5322000e+01   2.1350000e+00
   2.2725889e+03   1.0697900e+02   2.3308600e+02   6.7455000e+01   2.1560000e+00
   2.2727412e+03   1.0608200e+02   2.3241600e+02   7.1453000e+01   2.1910000e+00
   2.2728936e+03   1.0540500e+02   2.3237500e+02   7.6978000e+01   2.2380000e+00
   2.2730461e+03   1.0541300e+02   2.3413200e+02   7.9417000e+01   2.2690000e+00
   2.2731985e+03   1.0655300e+02   2.3704700e+02   7.6979000e+01   2.2720000e+00
   2.2733508e+03   1.0845200e+02   2.4015500e+02   7.4206000e+01   2.2480000e+00
   2.2735032e+03   1.1100200e+02   2.4490000e+02   7.3687000e+01   2.2060000e+00
   2.2736555e+03   1.1377400e+02   2.5049600e+02   7.2078000e+01   2.1720000e+00
   2.2738081e+03   1.1635700e+02   2.5755400e+02   6.8524000e+01   2.1530000e+00
   2.2739604e+03   1.1751700e+02   2.6661800e+02   6.6120000e+01   2.1440000e+00
   2.2741128e+03   1.1956500e+02   2.8084700e+02   6.8874000e+01   2.1550000e+00
   2.2742651e+03   1.2097600e+02   2.9172900e+02   7.7973000e+01   2.1670000e+00
   2.2744177e+03   1.2040800e+02   2.9554200e+02   8.6162000e+01   2.1750000e+00
   2.2745701e+03   1.1803700e+02   2.8818700e+02   8.4184000e+01   2.1890000e+00
   2.2747224e+03   1.1525700e+02   2.7405600e+02   7.3006000e+01   2.2040000e+00
   2.2748748e+03   1.1234800e+02   2.5928400e+02   6.7296000e+01   2.2030000e+00
   2.2750273e+03   1.1021300e+02   2.4924700e+02   6.8640000e+01   2.1860000e+00
   2.2751797e+03   1.0934900e+02   2.4217100e+02   6.6976000e+01   2.1530000e+00
   2.2753320e+03   1.0944900e+02   2.3854000e+02   6.3417000e+01   2.1190000e+00
   2.2754844e+03   1.1023500e+02   2.3699300e+02   6.2293000e+01   2.1020000e+00
   2.2756367e+03   1.1081100e+02   2.3782800e+02   6.2305000e+01   2.0950000e+00
   2.2757893e+03   1.1128700e+02   2.4161500e+02   6.0962000e+01   2.0900000e+00
   2.2759417e+03   1.1183000e+02   2.4686800e+02   5.8003000e+01   2.0880000e+00
   2.2760940e+03   1.1237600e+02   2.4987500e+02   5.7407000e+01   2.0930000e+00
   2.2762463e+03   1.1257400e+02   2.4962500e+02   6.0609000e+01   2.1110000e+00
   2.2763989e+03   1.1250900e+02   2.5012800e+02   6.4918000e+01   2.1390000e+00
   2.2765513e+03   1.1219800e+02   2.4914100e+02   6.9021000e+01   2.1520000e+00
   2.2767036e+03   1.1154900e+02   2.4636100e+02   7.1928000e+01   2.1470000e+00
   2.2768560e+03   1.1050500e+02   2.4184100e+02   6.9263000e+01   2.1460000e+00
   2.2770085e+03   1.0920800e+02   2.3761800e+02   6.3589000e+01   2.1450000e+00
   2.2771609e+03   1.0850500e+02   2.3368600e+02   6.1842000e+01   2.1340000e+00
   2.2773132e+03   1.0823100e+02   2.3288400e+02   6.2117000e+01   2.1280000e+00
   2.2774656e+03   1.0823900e+02   2.3399500e+02   6.2299000e+01   2.1340000e+00
   2.2776179e+03   1.0828500e+02   2.3619100e+02   6.1705000e+01   2.1410000e+00
   2.2777705e+03   1.0847500e+02   2.3634400e+02   6.1458000e+01   2.1490000e+00
   2.2779229e+03   1.0860100e+02   2.3740700e+02   6.4301000e+01   2.1680000e+00
   2.2780752e+03   1.0844900e+02   2.3745200e+02   6.8687000e+01   2.2110000e+00
   2.2782275e+03   1.0799200e+02   2.3841300e+02   7.5847000e+01   2.2680000e+00
   2.2783801e+03   1.0774900e+02   2.4033800e+02   8.1120000e+01   2.3070000e+00
   2.2785325e+03   1.0790800e+02   2.4259100e+02   7.8164000e+01   2.3210000e+00
   2.2786848e+03   1.0839500e+02   2.4700600e+02   7.4946000e+01   2.3220000e+00
   2.2788372e+03   1.0955400e+02   2.5587000e+02   7.6626000e+01   2.2870000e+00
   2.2789897e+03   1.1220200e+02   2.6901100e+02   8.1337000e+01   2.1990000e+00
   2.2791421e+03   1.1636200e+02   2.8231000e+02   8.3262000e+01   2.1450000e+00
   2.2792944e+03   1.1961900e+02   2.9197000e+02   8.4060000e+01   2.0490000e+00
   2.2794468e+03   1.1982000e+02   2.9882600e+02   8.3964000e+01   1.9820000e+00
   2.2795991e+03   1.1709700e+02   2.9621100e+02   8.5500000e+01   1.9540000e+00
   2.2797517e+03   1.1330700e+02   2.8794200e+02   8.2455000e+01   1.9960000e+00
   2.2799041e+03   1.0982400e+02   2.7410200e+02   7.8400000e+01   2.0760000e+00
   2.2800564e+03   1.0650400e+02   2.5301700e+02   7.4674000e+01   2.1500000e+00
   2.2802087e+03   1.0476600e+02   2.3061400e+02   7.2475000e+01   2.1660000e+00
   2.2803613e+03   1.0404300e+02   2.1346200e+02   7.1507000e+01   2.1470000e+00
   2.2805137e+03   1.0413000e+02   2.0734500e+02   6.8087000e+01   2.1370000e+00
   2.2806660e+03   1.0424900e+02   2.0647000e+02   6.6060000e+01   2.1380000e+00
   2.2808184e+03   1.0416900e+02   2.0704300e+02   6.8076000e+01   2.1380000e+00
   2.2809709e+03   1.0367300e+02   2.0725900e+02   6.8360000e+01   2.1420000e+00
