~Version Information Section
VERS. 2.0 : CWLS Log ASCII Standard - VERSION 2.0
WRAP. NO  : One Line per depth Step
~Well Information Section
#MNEM.UNIT                     Data                         Information
#----------   ------------------------------------------   ----------------
STRT.M                             1993.0000 : Start Depth
STOP.M                            2191.0000 : Stop Depth
NULL.        -999.25                        : Null Value
COMP.UPDATED NORSKHYDR                      : Company Name
WELL.        WELL-4                        : Well
FLD .        GLITNE                         : Field
LOC .        META                           : Location
PROV.                                       : Province
CNTY.                                       : County
STAT.        META                           : State/Province
CTRY.        NORWAY                       : Nation
SRVC.        30                             : Logging Company Code
DATE.        10-20-XXXX                    : Run Date
UWI .        WELL0004                       : Unique Well Identifier
API .                                       : API Number
~Parameter Information Block
#MNEM.UNIT       Value                            Description
#---------       ---------                        -------------
~Curve Information Section
#MNEM.UNIT    API CODE                      : Curve description
#---.-----    --------                      : -----------------
DEPT .m                                      : 
Vp   .km/s                                   : Vp(in Km/s)
RHOB .G/C3                                   : Bulk Density
GR   .GAPI                                   : Gamma Ray
~Ascii
# ...
    2156.81372        2.67313        2.25900       96.13400
    2156.96606        2.60906        2.22680      110.06020
    2157.11841        2.59131        2.18840      110.32890
    2157.27075        2.55868        2.17010      109.34320
    2157.42310        2.52060        2.18130       92.63020
    2157.57568        2.48768        2.20470       91.93020
    2157.72803        2.47556        2.21310       94.61610
    2157.88037        2.50403        2.20440      100.51400
    2158.03271        2.55868        2.19440      104.66640
    2158.18530        2.68964        2.19070       99.13120
    2158.33765        2.67313        2.20690       97.75360
    2158.48999        2.58911        2.22530       83.52440
    2158.64233        2.56731        2.24280       84.06540
    2158.79492        2.49788        2.25630       87.28440
    2158.94727        2.46754        2.27540       87.00210
    2159.09961        2.46156        2.27800       85.87860
    2159.25195        2.49379        2.25180       85.42170
    2159.40430        2.44969        2.21590       87.79030
    2159.55688        2.38453        2.18610      102.73100
    2159.70923        2.35142        2.17020      104.52390
    2159.86157        2.37710        2.17260       93.79700
    2160.01392        2.51022        2.17710       89.90610
    2160.16650        2.70396        2.17930       96.48810
    2160.31885        2.80860        2.18170       92.94430
    2160.47119        2.82946        2.19180       90.96640
    2160.62354        2.68964        2.21010       83.85170
    2160.77588        2.68727        2.22640       79.77890
    2160.92847        2.65914        2.22950       81.35570
    2161.08081        2.67079        2.22950       78.47880
    2161.23315        2.66611        2.20990       87.24040
    2161.38550        2.72085        2.19550       88.48340
    2161.53809        2.69678        2.18500      101.10150
    2161.69043        2.69678        2.17650      103.63260
    2161.84277        2.68018        2.16060      107.76190
    2161.99512        2.47154        2.15290      107.37090
    2162.14771        2.49583        2.14530       95.37690
    2162.30005        2.54162        2.13240       84.96260
    2162.45239        2.59794        2.12870       87.06900
    2162.60474        2.59573        2.14470       85.33900
    2162.75708        2.63386        2.17000       78.54640
    2162.90967        2.64529        2.19570       75.52280
    2163.06201        2.67783        2.20340       68.52420
    2163.21436        2.74783        2.20570       66.61460
    2163.36670        2.86672        2.21250       67.55980
    2163.51929        2.86672        2.23050       68.96320
    2163.67163        2.83472        2.23910       67.29440
    2163.82397        2.88026        2.22560       68.96520
    2163.97632        2.78805        2.19990       69.27110
    2164.12891        2.67313        2.17530       76.13510
    2164.28125        2.61802        2.16320       80.34480
    2164.43359        2.60016        2.17340       98.07400
    2164.58594        2.60683        2.20140      102.55020
    2164.73828        2.61353        2.21390       94.36100
    2164.89087        2.56514        2.20040       94.75030
    2165.04321        2.58035        2.16540       91.43390
    2165.19556        2.55226        2.12370       93.89340
    2165.34790        2.55012        2.10420       96.70660
    2165.50049        2.46555        2.10020       97.08210
    2165.65283        2.45364        2.10670       97.78580
    2165.80518        2.49583        2.10690       92.46630
    2165.95752        2.53738        2.10490       86.58930
    2166.11011        2.61578        2.10730       84.23870
    2166.26245        2.62932        2.11680       83.67750
    2166.41479        2.62479        2.12270       92.01720
    2166.56714        2.62479        2.12300       95.89990
    2166.71948        2.58692        2.12260      102.69280
    2166.87207        2.56299        2.12600      101.94650
    2167.02441        2.58472        2.12800       99.82800
    2167.17676        2.60683        2.12540       99.84470
    2167.32910        2.66611        2.12290       90.09320
    2167.48169        2.64300        2.12490       82.36420
    2167.63403        2.61129        2.13030       78.63280
    2167.78638        2.56731        2.11900       78.69730
    2167.93872        2.66845        2.12010       82.63740
    2168.09131        2.73305        2.11570       80.05290
    2168.24365        2.81119        2.12620       80.28430
    2168.39600        2.86672        2.12760       79.31220
    2168.54834        2.67783        2.13180       92.61220
    2168.70068        2.58472        2.13130      100.46220
    2168.85327        2.51022        2.12970      101.55400
    2169.00562        2.44184        2.13580      100.89070
    2169.15796        2.38640        2.15490      104.81120
    2169.31030        2.34419        2.19080      105.52770
    2169.46289        2.26241        2.22760       98.92110
    2169.61523        2.24905        2.24240       90.89500
    2169.76758        2.27762        2.23500       81.21280
    2169.91992        2.26577        2.22120       77.88780
    2170.07251        2.39955        2.24060       68.08660
    2170.22485        2.48161        2.23400       69.14000
    2170.37720        2.52060        2.20370       72.23710
    2170.52954        2.51022        2.16320       82.55360
    2170.68188        2.44773        2.13720       81.92700
    2170.83447        2.40713        2.12900       84.41980
    2170.98682        2.36786        2.12460       92.03880
    2171.13916        2.36236        2.12260       93.89380
    2171.29150        2.35506        2.12060       92.86550
    2171.44409        2.36786        2.11780       89.11750
    2171.59644        2.33700        2.11790       86.66930
    2171.74878        2.40334        2.11050       85.84440
    2171.90112        2.41859        2.09670       86.61820
    2172.05371        2.43989        2.09000       87.87470
    2172.20605        2.42436        2.10490       90.84810
    2172.35840        2.44773        2.13230       92.53430
    2172.51074        2.50198        2.13070       93.23820
    2172.66309        2.65682        2.11440       93.95030
    2172.81567        2.58472        2.09790       87.93960
    2172.96802        2.49175        2.10370       85.22730
    2173.12036        2.55012        2.11480       79.18060
    2173.27271        2.49175        2.12860       78.74310
    2173.42529        2.53106        2.12710       76.01690
    2173.57764        2.49788        2.12770       77.84670
    2173.72998        2.46555        2.12510       71.96550
    2173.88232        2.43210        2.12920       76.64400
    2174.03491        2.47154        2.13840       73.27640
    2174.18726        2.49788        2.14960       71.55910
    2174.33960        2.52687        2.15160       71.39530
    2174.49194        2.55440        2.15610       76.56930
    2174.64429        2.58472        2.15480       73.95410
    2174.79688        2.61802        2.15420       74.96660
    2174.94922        2.61578        2.15290       73.41970
    2175.10156        2.62705        2.14700       74.27780
    2175.25391        2.63386        2.14460       72.78530
    2175.40649        2.63842        2.15150       74.56190
    2175.55884        2.64529        2.16650       72.72640
    2175.71118        2.67783        2.17840       78.52920
    2175.86353        2.63614        2.16650       73.57650
    2176.01611        2.64759        2.14240       74.45290
    2176.16846        2.63386        2.12420       72.10910
    2176.32080        2.63159        2.10840       70.38890
    2176.47314        2.62479        2.10130       70.11170
    2176.62549        2.61353        2.11790       70.34900
    2176.77808        2.62253        2.16180       68.63300
    2176.93042        2.62253        2.19190       77.49030
    2177.08276        2.61353        2.18130       74.68710
