~Version Information Section
VERS. 2.0 : CWLS Log ASCII Standard - VERSION 2.0
WRAP. NO  : One Line per depth Step
~Well Information Section
#MNEM.UNIT                     Data                         Information
#----------   ------------------------------------------   ----------------
STRT.M                             200.0000 : Start Depth
STOP.M                            5021.0000 : Stop Depth
NULL.        -9999.00000                        : Null Value
COMP.UPDATED NORSKHYDR                      : Company Name
WELL.        WELL-3                        : Well
FLD .        GLITNE                          : Field
LOC .        META                           : Location
PROV.                                       : Province
CNTY.                                       : County
STAT.        META                           : State/Province
CTRY.        NORWAY                      : Nation
SRVC.        30                             : Logging Company Code
DATE.        10-20-XXXX                    : Run Date
UWI .        WELL0003                       : Unique Well Identifier
API .                                       : API Number
~Parameter Information Block
#MNEM.UNIT       Value                            Description
#---------       ---------                        -------------
~Curve Information Section
#MNEM.UNIT    API CODE                      : Curve description
#---.-----    --------                      : -----------------
DEPT .m                                      : 
Vp   .km/s                                   : Vp(in Km/s)
RHOB .G/C3                                   : Bulk Density
GR   .GAPI                                   : Gamma Ray
~Ascii
# ...
    2446.52588        2.97185        2.25500       34.71880
    2446.67847        2.95385        2.24100       32.78120
    2446.83081        2.93077        2.23170       26.62500
    2446.98315        2.95922        2.23930       23.92190
    2447.13550        3.06717        2.25800       21.79690
    2447.28809        3.05564        2.27340       24.50000
    2447.44043        3.07879        2.28120       25.06250
    2447.59277        2.97185        2.28360       24.35940
    2447.74512        2.93083        2.28310       23.03340
    2447.89771        2.93077        2.27670       21.70310
    2448.05005        2.89253        2.26060       22.40630
    2448.20239        2.89253        2.24130       25.92190
    2448.35474        2.87550        2.22660       29.44750
    2448.50708        2.85527        2.21240       28.79690
    2448.65967        2.83865        2.19740       29.50000
    2448.81201        2.80276        2.18670       30.10940
    2448.96436        2.81246        2.18300       33.50000
    2449.11670        2.84850        2.18510       31.39290
    2449.26929        2.79154        2.19120       32.77790
    2449.42163        2.79633        2.19950       30.68750
    2449.57397        2.81246        2.21350       32.09380
    2449.72632        2.77091        2.23160       29.37500
    2449.87891        3.09827        2.24960       33.62500
    2450.03125        3.04812        2.26860       33.66640
    2450.18359        3.12415        2.28910       40.00000
    2450.33594        3.11816        2.30510       35.71880
    2450.48828        2.98247        2.29710       39.81590
    2450.64087        2.81666        2.25240       41.94080
    2450.79321        2.45435        2.20470       44.00000
    2450.94556        2.29605        2.17490       41.31250
    2451.09790        2.04389        2.16070       41.81960
    2451.25049        2.02549        2.15750       46.21990
    2451.40283        2.18691        2.15990       46.96880
    2451.55518        2.05946        2.16810       43.62500
    2451.70752        2.02525        2.18190       40.68750
    2451.86011        2.05444        2.19020       37.74770
    2452.01245        2.17518        2.18930       36.31030
    2452.16479        2.16554        2.19490       34.96870
    2452.31714        2.33787        2.20950       37.78120
    2452.46948        2.59291        2.22460       37.68410
    2452.62207        2.75657        2.23200       35.55690
    2452.77441        2.61491        2.22630       32.06250
    2452.92676        2.58305        2.21870       32.28130
    2453.07910        2.68842        2.21980       33.78130
    2453.23169        2.57938        2.22580       35.12130
    2453.38403        2.87547        2.23030       32.81250
    2453.53638        2.95922        2.23260       33.40620
    2453.68872        2.98275        2.23590       35.00000
    2453.84131        2.94315        2.24110       35.65630
    2453.99365        2.93077        2.24620       36.93750
    2454.14600        2.83370        2.24630       33.31250
    2454.29834        2.91500        2.24270       31.39060
    2454.45068        2.88227        2.23840       30.90620
    2454.60327        2.89253        2.23080       35.25000
    2454.75562        2.92024        2.22150       31.76560
    2454.90796        2.91500        2.21410       28.09370
    2455.06030        2.89768        2.20880       27.92190
    2455.21289        2.89768        2.20480       32.09380
    2455.36523        2.88739        2.20170       36.31250
    2455.51758        2.86533        2.20180       32.15620
    2455.66992        2.83865        2.20080       39.12500
    2455.82251        2.82222        2.19780       40.56250
    2455.97485        2.72143        2.19430       47.56250
    2456.12720        2.63326        2.19700       46.34380
    2456.27954        2.60513        2.21050       45.65630
    2456.43188        2.57487        2.22360       41.37500
    2456.58447        2.57487        2.23320       40.37500
    2456.73682        2.66056        2.23340       49.37500
    2456.88916        2.52422        2.22430       56.40620
    2457.04150        2.60096        2.21690       57.78120
    2457.19409        2.43111        2.21870       51.62500
    2457.34644        2.32450        2.22750       48.93750
    2457.49878        2.40830        2.23830       44.90630
    2457.65112        2.51901        2.24590       43.46880
    2457.80371        2.56674        2.24780       44.78130
    2457.95605        2.76619        2.24250       44.65620
    2458.10840        2.71235        2.23430       43.25000
    2458.26074        2.41187        2.21530       36.40630
    2458.41309        2.55732        2.17590       44.71880
    2458.56567        2.49070        2.12780       49.43750
    2458.71802        2.48689        2.11940       51.50000
    2458.87036        2.68807        2.13890       40.51760
    2459.02271        2.70780        2.17770       33.72960
    2459.17529        2.57487        2.20410       33.09370
    2459.32764        2.70333        2.20520       31.64060
    2459.47998        2.66498        2.19410       28.72340
    2459.63232        2.77073        2.18130       25.09960
    2459.78491        2.72143        2.17310       25.85940
    2459.93726        2.75214        2.16970       30.68750
    2460.08960        2.77091        2.16710       30.65630
    2460.24194        2.76620        2.16030       31.34260
    2460.39429        2.79153        2.15520       29.37500
    2460.54688        2.87039        2.16090       28.10940
    2460.69922        2.98824        2.18270       29.62500
    2460.85156        3.01219        2.20670       24.66420
    2461.00391        3.04225        2.21510       25.18660
    2461.15649        2.97185        2.20930       24.48440
    2461.30884        2.90286        2.19990       27.92190
    2461.46118        2.90286        2.19270       28.65510
    2461.61353        2.90286        2.18730       30.62180
    2461.76611        2.90979        2.18900       32.09380
    2461.91846        2.92549        2.19790       30.00000
    2462.07080        2.88739        2.20490       26.57810
    2462.22314        2.90975        2.20220       26.04770
    2462.37549        2.89768        2.19450       26.06250
    2462.52808        2.92549        2.17920       28.76560
    2462.68042        2.95922        2.16730       26.48440
    2462.83276        2.97183        2.16700       26.46880
    2462.98511        2.97728        2.19120       21.61720
    2463.13770        2.96642        2.21680       20.96880
    2463.29004        2.95385        2.24020       20.98440
    2463.44238        2.92554        2.25240       24.49440
    2463.59473        2.90981        2.24540       27.38600
    2463.74731        2.89253        2.22800       28.85940
    2463.89966        2.88739        2.21440       28.81250
    2464.05200        2.89253        2.20610       25.92190
    2464.20435        2.90979        2.20160       25.81250
    2464.35669        2.92551        2.19360       24.42510
    2464.50928        2.93783        2.19250       26.46880
    2464.66162        2.97729        2.20040       28.59380
    2464.81396        2.98824        2.21330       28.65630
    2464.96631        3.01223        2.22110       25.17190
    2465.11890        3.01225        2.22380       25.18530
    2465.27124        3.02531        2.22340       23.82810
    2465.42358        3.02531        2.22290       24.51560
    2465.57593        3.06139        2.22780       20.31250
    2465.72852        3.15650        2.23820       22.38270
    2465.88086        3.15650        2.25700       27.17190
    2466.03320        3.17500        2.26750       28.53130
    2466.18555        3.08658        2.26710       28.48440
    2466.33789        3.02538        2.25780       26.50010
    2466.49048        3.06717        2.25210       26.56250
    2466.64282        3.07879        2.24970       29.53130
    2466.79517        3.13621        2.25130       28.90630
