~Version Information Section
VERS. 2.0 : CWLS Log ASCII Standard - VERSION 2.0
WRAP. NO  : One Line per depth Step
~Well Information Section
#MNEM.UNIT                     Data                         Information
#----------   ------------------------------------------   ----------------
STRT.M                             2100.0000 : Start Depth
STOP.M                            2300.0000 : Stop Depth
NULL.        -999.25                        : Null Value
COMP.UPDATED NORSKHYDR                      : Company Name
WELL.        WELL-5                        : Well
FLD .        GLITNE                         : Field
LOC .        META                           : Location
PROV.                                       : Province
CNTY.                                       : County
STAT.        META                           : State/Province
CTRY.        NORWAY                       : Nation
SRVC.        30                             : Logging Company Code
DATE.        10-20-XXXX                    : Run Date
UWI .        WELL0005                       : Unique Well Identifier
API .                                       : API Number
~Parameter Information Block
#MNEM.UNIT       Value                            Description
#---------       ---------                        -------------
~Curve Information Section
#MNEM.UNIT    API CODE                      : Curve description
#---.-----    --------                      : -----------------
DEPT .m                                      : 
Vp   .km/s                                   : Vp(in Km/s)
Vs   .km/s                                   : Vs(in km/s)
GR   .GAPI                                   : Gamma Ray
RHOB .G/C3                                   : Bulk Density
~Ascii
# ...
   2.1453347e+03   1.3375200e+02   3.8436000e+02   8.3558000e+01   2.0240000e+00
   2.1454873e+03   1.3164800e+02   3.7631300e+02   8.7683000e+01   2.0750000e+00
   2.1456396e+03   1.3001600e+02   3.7020500e+02   8.7829000e+01   2.1060000e+00
   2.1457920e+03   1.2993700e+02   3.6608800e+02   8.6724000e+01   2.1090000e+00
   2.1459443e+03   1.3064200e+02   3.6666800e+02   8.8124000e+01   2.0770000e+00
   2.1460969e+03   1.3127700e+02   3.6629500e+02   8.8589000e+01   2.0380000e+00
   2.1462493e+03   1.3158500e+02   3.6538200e+02   8.5951000e+01   2.0180000e+00
   2.1464016e+03   1.3176500e+02   3.6767000e+02   8.4382000e+01   2.0050000e+00
   2.1465540e+03   1.3222200e+02   3.7416700e+02   8.4503000e+01   2.0140000e+00
   2.1467065e+03   1.3292300e+02   3.8305400e+02   8.4896000e+01   2.0790000e+00
   2.1468589e+03   1.3408800e+02   3.8939700e+02   8.5497000e+01   2.1570000e+00
   2.1470112e+03   1.3484900e+02   3.9588300e+02   8.6489000e+01   2.1710000e+00
   2.1471636e+03   1.3477100e+02   3.9316200e+02   8.6744000e+01   2.1080000e+00
   2.1473159e+03   1.3397800e+02   3.9303000e+02   8.7075000e+01   2.0680000e+00
   2.1474685e+03   1.3327100e+02   3.8269900e+02   8.9198000e+01   2.1100000e+00
   2.1476208e+03   1.3279000e+02   3.8415600e+02   9.0664000e+01   2.1540000e+00
   2.1477732e+03   1.3250200e+02   3.8079800e+02   8.9891000e+01   2.1550000e+00
   2.1479255e+03   1.3218200e+02   3.8189800e+02   8.8991000e+01   2.1390000e+00
   2.1480781e+03   1.3186600e+02   3.8819100e+02   8.9351000e+01   2.1190000e+00
   2.1482305e+03   1.3152900e+02   3.9736800e+02   9.0008000e+01   2.0900000e+00
   2.1483828e+03   1.3131000e+02   4.1043600e+02   9.1894000e+01   2.0820000e+00
   2.1485352e+03   1.3100800e+02   4.2431600e+02   9.5840000e+01   2.1200000e+00
   2.1486877e+03   1.3135000e+02   4.3168800e+02   9.7418000e+01   2.1810000e+00
   2.1488401e+03   1.3208600e+02   4.3318800e+02   9.6059000e+01   2.2210000e+00
   2.1489924e+03   1.3283600e+02   4.3729400e+02   9.3366000e+01   2.2200000e+00
   2.1491448e+03   1.3356700e+02   4.3512700e+02   8.8210000e+01   2.2010000e+00
   2.1492971e+03   1.3338700e+02   4.3017600e+02   8.3226000e+01   2.1900000e+00
   2.1494497e+03   1.3260900e+02   4.2153400e+02   8.3661000e+01   2.1800000e+00
   2.1496021e+03   1.3186200e+02   4.1284100e+02   8.6630000e+01   2.1840000e+00
   2.1497544e+03   1.3128500e+02   4.0660900e+02   8.6471000e+01   2.2020000e+00
   2.1499067e+03   1.3160400e+02   4.0048200e+02   8.6290000e+01   2.2080000e+00
   2.1500593e+03   1.3220500e+02   3.9700800e+02   8.9010000e+01   2.1750000e+00
   2.1502117e+03   1.3257100e+02   3.9630200e+02   8.9674000e+01   2.1150000e+00
   2.1503640e+03   1.3264600e+02   3.9786300e+02   8.5361000e+01   2.0900000e+00
   2.1505164e+03   1.3249400e+02   3.9915400e+02   8.1754000e+01   2.1380000e+00
   2.1506689e+03   1.3236100e+02   4.0817300e+02   8.4968000e+01   2.2120000e+00
   2.1508213e+03   1.3237800e+02   4.1580900e+02   8.9650000e+01   2.2650000e+00
   2.1509736e+03   1.3253400e+02   4.2225900e+02   9.0094000e+01   2.2950000e+00
   2.1511260e+03   1.3269500e+02   4.1702100e+02   8.9589000e+01   2.3010000e+00
   2.1512783e+03   1.3274000e+02   4.1090100e+02   8.9692000e+01   2.2880000e+00
   2.1514309e+03   1.3245500e+02   4.0504700e+02   9.0345000e+01   2.2830000e+00
   2.1515833e+03   1.3177000e+02   3.9789400e+02   9.0499000e+01   2.3000000e+00
   2.1517356e+03   1.3043800e+02   3.8142700e+02   8.9225000e+01   2.3220000e+00
   2.1518879e+03   1.2932400e+02   3.7205700e+02   8.8130000e+01   2.3200000e+00
   2.1520405e+03   1.2886500e+02   3.6306500e+02   8.8765000e+01   2.2850000e+00
   2.1521929e+03   1.2882000e+02   3.6910000e+02   8.9972000e+01   2.2290000e+00
   2.1523452e+03   1.2894700e+02   3.6700300e+02   8.7125000e+01   2.1950000e+00
   2.1524976e+03   1.2909700e+02   3.6456500e+02   8.3149000e+01   2.2040000e+00
   2.1526501e+03   1.2919300e+02   3.6199800e+02   8.4737000e+01   2.2180000e+00
   2.1528025e+03   1.2925200e+02   3.6352600e+02   8.8724000e+01   2.2450000e+00
   2.1529548e+03   1.2923600e+02   3.7044200e+02   8.8939000e+01   2.3400000e+00
   2.1531072e+03   1.2926100e+02   3.7614500e+02   8.5618000e+01   2.4430000e+00
   2.1532595e+03   1.2930200e+02   3.7684000e+02   8.2506000e+01   2.4510000e+00
   2.1534121e+03   1.2930000e+02   3.7488700e+02   8.3471000e+01   2.3710000e+00
   2.1535645e+03   1.2891200e+02   3.7012100e+02   8.7663000e+01   2.2560000e+00
   2.1537168e+03   1.2809200e+02   3.6520100e+02   9.0306000e+01   2.1580000e+00
   2.1538691e+03   1.2673900e+02   3.5947400e+02   9.0459000e+01   2.0950000e+00
   2.1540217e+03   1.2559200e+02   3.5208700e+02   8.9353000e+01   2.0420000e+00
   2.1541741e+03   1.2511000e+02   3.4603300e+02   8.9801000e+01   2.0030000e+00
   2.1543264e+03   1.2561800e+02   3.4856600e+02   9.0620000e+01   1.9830000e+00
   2.1544788e+03   1.2698300e+02   3.6014700e+02   9.3434000e+01   1.9930000e+00
   2.1546313e+03   1.2860300e+02   3.7317600e+02   9.6551000e+01   2.0390000e+00
   2.1547837e+03   1.3011400e+02   3.8285000e+02   9.4290000e+01   2.0610000e+00
   2.1549360e+03   1.3173200e+02   3.8650000e+02   9.2276000e+01   2.0470000e+00
   2.1550884e+03   1.3228700e+02   3.8464400e+02   9.2142000e+01   2.0250000e+00
   2.1552407e+03   1.3182300e+02   3.8325400e+02   9.1477000e+01   2.0020000e+00
   2.1553933e+03   1.3080000e+02   3.8790900e+02   9.3211000e+01   1.9890000e+00
   2.1555457e+03   1.2957700e+02   3.8660800e+02   9.3181000e+01   2.0030000e+00
   2.1556980e+03   1.2878600e+02   3.8146200e+02   8.9582000e+01   2.0250000e+00
   2.1558503e+03   1.2865400e+02   3.7522300e+02   8.8936000e+01   2.0380000e+00
   2.1560029e+03   1.2909000e+02   3.7576600e+02   9.0160000e+01   2.0600000e+00
   2.1561553e+03   1.3012600e+02   3.7304900e+02   8.8743000e+01   2.0960000e+00
   2.1563076e+03   1.3089700e+02   3.6885700e+02   8.3715000e+01   2.1160000e+00
   2.1564600e+03   1.3092800e+02   3.6457100e+02   7.8005000e+01   2.0900000e+00
   2.1566123e+03   1.3020800e+02   3.6638000e+02   7.5349000e+01   2.0040000e+00
   2.1567649e+03   1.2944900e+02   3.6748300e+02   7.5478000e+01   1.9260000e+00
   2.1569172e+03   1.2849100e+02   3.6871900e+02   7.7422000e+01   1.9590000e+00
   2.1570696e+03   1.2747200e+02   3.6913800e+02   7.9350000e+01   2.0800000e+00
   2.1572219e+03   1.2602800e+02   3.6572200e+02   7.8232000e+01   2.1550000e+00
   2.1573745e+03   1.2510000e+02   3.6482700e+02   7.8955000e+01   2.1600000e+00
   2.1575269e+03   1.2527200e+02   3.6269000e+02   8.6884000e+01   2.1610000e+00
   2.1576792e+03   1.2656100e+02   3.5994800e+02   9.5306000e+01   2.1700000e+00
   2.1578315e+03   1.2817200e+02   3.5791600e+02   9.5859000e+01   2.1760000e+00
   2.1579841e+03   1.2808300e+02   3.5605600e+02   9.0029000e+01   2.1510000e+00
   2.1581365e+03   1.2738800e+02   3.5096800e+02   8.5764000e+01   2.0760000e+00
   2.1582888e+03   1.2619400e+02   3.4590100e+02   8.9289000e+01   1.9870000e+00
   2.1584412e+03   1.2492000e+02   3.4110000e+02   9.1875000e+01   1.9170000e+00
   2.1585935e+03   1.2391000e+02   3.4398400e+02   8.5372000e+01   1.8720000e+00
   2.1587461e+03   1.2328100e+02   3.4945000e+02   8.0284000e+01   1.8830000e+00
   2.1588984e+03   1.2300900e+02   3.5356200e+02   7.9791000e+01   1.9810000e+00
   2.1590508e+03   1.2343700e+02   3.6118700e+02   8.0183000e+01   2.1410000e+00
   2.1592031e+03   1.2467400e+02   3.6202300e+02   8.0298000e+01   2.2610000e+00
   2.1593557e+03   1.2683900e+02   3.5947300e+02   8.0588000e+01   2.2050000e+00
   2.1595081e+03   1.2906300e+02   3.5191400e+02   8.1557000e+01   1.9580000e+00
   2.1596604e+03   1.2976200e+02   3.4757200e+02   7.9515000e+01   1.7310000e+00
   2.1598127e+03   1.2852400e+02   3.4128200e+02   7.6846000e+01   1.6800000e+00
   2.1599653e+03   1.2595300e+02   3.3963600e+02   7.8828000e+01   1.7320000e+00
   2.1601177e+03   1.2403300e+02   3.4216800e+02   8.0987000e+01   1.7810000e+00
   2.1602700e+03   1.2325300e+02   3.4800300e+02   8.1397000e+01   1.8180000e+00
