~Version Information Section
VERS. 2.0 : CWLS Log ASCII Standard - VERSION 2.0
WRAP. NO  : One Line per depth Step
~Well Information Section
#MNEM.UNIT                     Data                         Information
#----------   ------------------------------------------   ----------------
STRT.M                             2100.0000 : Start Depth
STOP.M                            2300.0000 : Stop Depth
NULL.        -999.25                        : Null Value
COMP.UPDATED NORSKHYDR                      : Company Name
WELL.        WELL-5                        : Well
FLD .        GLITNE                         : Field
LOC .        META                           : Location
PROV.                                       : Province
CNTY.                                       : County
STAT.        META                           : State/Province
CTRY.        NORWAY                       : Nation
SRVC.        30                             : Logging Company Code
DATE.        10-20-XXXX                    : Run Date
UWI .        WELL0005                       : Unique Well Identifier
API .                                       : API Number
~Parameter Information Block
#MNEM.UNIT       Value                            Description
#---------       ---------                        -------------
~Curve Information Section
#MNEM.UNIT    API CODE                      : Curve description
#---.-----    --------                      : -----------------
DEPT .m                                      : 
Vp   .km/s                                   : Vp(in Km/s)
Vs   .km/s                                   : Vs(in km/s)
GR   .GAPI                                   : Gamma Ray
RHOB .G/C3                                   : Bulk Density
~Ascii
# ...
   2.2509480e+03   1.1924600e+02   2.7990300e+02   8.5240000e+01   2.2240000e+00
   2.2511003e+03   1.1661800e+02   2.7431800e+02   8.1537000e+01   2.2130000e+00
   2.2512529e+03   1.1412800e+02   2.6876500e+02   7.7363000e+01   2.2430000e+00
   2.2514053e+03   1.1243100e+02   2.6496300e+02   7.5827000e+01   2.3470000e+00
   2.2515576e+03   1.1109500e+02   2.6268700e+02   7.5518000e+01   2.4590000e+00
   2.2517100e+03   1.1073400e+02   2.6487800e+02   7.2765000e+01   2.4790000e+00
   2.2518625e+03   1.1094100e+02   2.6863800e+02   6.9275000e+01   2.3850000e+00
   2.2520149e+03   1.1192700e+02   2.7181900e+02   7.0460000e+01   2.2770000e+00
   2.2521672e+03   1.1321700e+02   2.7409900e+02   7.1420000e+01   2.2360000e+00
   2.2523196e+03   1.1347900e+02   2.7693400e+02   7.2147000e+01   2.2340000e+00
   2.2524719e+03   1.1331500e+02   2.8179200e+02   7.6271000e+01   2.2270000e+00
   2.2526245e+03   1.1333600e+02   2.8640700e+02   7.7959000e+01   2.2120000e+00
   2.2527769e+03   1.1390400e+02   2.9095800e+02   7.6513000e+01   2.2130000e+00
   2.2529292e+03   1.1517400e+02   2.9270900e+02   7.4566000e+01   2.2260000e+00
   2.2530815e+03   1.1673600e+02   2.9483700e+02   7.0972000e+01   2.2080000e+00
   2.2532341e+03   1.1900000e+02   2.9688500e+02   6.6107000e+01   2.1690000e+00
   2.2533865e+03   1.2265900e+02   3.0105400e+02   6.7758000e+01   2.1620000e+00
   2.2535388e+03   1.2749400e+02   3.0732600e+02   7.5304000e+01   2.1900000e+00
   2.2536912e+03   1.3115500e+02   3.1660300e+02   8.1810000e+01   2.2160000e+00
   2.2538435e+03   1.3325700e+02   3.2594800e+02   8.3822000e+01   2.2260000e+00
   2.2539961e+03   1.3215100e+02   3.3454900e+02   8.2347000e+01   2.2310000e+00
   2.2541484e+03   1.3026500e+02   3.3962500e+02   8.2600000e+01   2.2370000e+00
   2.2543008e+03   1.2869100e+02   3.3960500e+02   8.5376000e+01   2.2360000e+00
   2.2544531e+03   1.2731000e+02   3.3194500e+02   8.5437000e+01   2.2300000e+00
   2.2546057e+03   1.2494800e+02   3.2238700e+02   8.1920000e+01   2.2230000e+00
   2.2547581e+03   1.2196500e+02   3.1196700e+02   7.7550000e+01   2.2110000e+00
   2.2549104e+03   1.1841900e+02   3.0165700e+02   7.3369000e+01   2.1980000e+00
   2.2550627e+03   1.1655300e+02   2.9246100e+02   7.0849000e+01   2.1910000e+00
   2.2552153e+03   1.1616700e+02   2.8520100e+02   6.9109000e+01   2.1870000e+00
   2.2553677e+03   1.1668200e+02   2.8163500e+02   6.8431000e+01   2.1940000e+00
   2.2555200e+03   1.1786900e+02   2.8286300e+02   6.9132000e+01   2.2300000e+00
   2.2556724e+03   1.1987000e+02   2.9565000e+02   7.1762000e+01   2.2720000e+00
   2.2558247e+03   1.2251300e+02   3.0994300e+02   7.3537000e+01   2.2840000e+00
   2.2559773e+03   1.2481700e+02   3.1896600e+02   7.6297000e+01   2.2840000e+00
   2.2561296e+03   1.2615600e+02   3.1922800e+02   7.8720000e+01   2.2680000e+00
   2.2562820e+03   1.2433900e+02   3.1343700e+02   8.0735000e+01   2.2480000e+00
   2.2564343e+03   1.1793900e+02   3.0753800e+02   8.0185000e+01   2.2370000e+00
   2.2565869e+03   1.0842300e+02   3.0069400e+02   7.7034000e+01   2.2390000e+00
   2.2567393e+03   1.0099300e+02   2.9443600e+02   7.5003000e+01   2.3070000e+00
   2.2568916e+03   9.9635000e+01   2.8320000e+02   7.4704000e+01   2.4390000e+00
   2.2570439e+03   1.0320700e+02   2.7727500e+02   7.0220000e+01   2.5590000e+00
   2.2571965e+03   1.1065400e+02   2.7823700e+02   6.5924000e+01   2.5920000e+00
   2.2573489e+03   1.1544000e+02   2.8078600e+02   6.8385000e+01   2.5150000e+00
   2.2575012e+03   1.1709300e+02   2.7724100e+02   7.4270000e+01   2.2680000e+00
   2.2576536e+03   1.1649300e+02   2.7761000e+02   7.7558000e+01   2.1630000e+00
   2.2578059e+03   1.1523500e+02   2.7503900e+02   7.5062000e+01   2.1280000e+00
   2.2579585e+03   1.1368000e+02   2.7427600e+02   6.7521000e+01   2.1050000e+00
   2.2581108e+03   1.1210200e+02   2.7180100e+02   6.4630000e+01   2.0950000e+00
   2.2582632e+03   1.1038300e+02   2.6518700e+02   6.3038000e+01   2.0870000e+00
   2.2584155e+03   1.0874300e+02   2.5677400e+02   6.3182000e+01   2.1030000e+00
   2.2585681e+03   1.0705200e+02   2.5190300e+02   6.3394000e+01   2.1190000e+00
   2.2587205e+03   1.0572700e+02   2.4946500e+02   6.4366000e+01   2.1320000e+00
   2.2588728e+03   1.0497700e+02   2.4995700e+02   6.4501000e+01   2.1470000e+00
   2.2590251e+03   1.0455500e+02   2.5456800e+02   6.5706000e+01   2.1660000e+00
   2.2591777e+03   1.0435000e+02   2.6221400e+02   6.6452000e+01   2.1810000e+00
   2.2593301e+03   1.0454100e+02   2.6877300e+02   6.5165000e+01   2.1760000e+00
   2.2594824e+03   1.0524700e+02   2.7157600e+02   6.3075000e+01   2.1520000e+00
   2.2596348e+03   1.0628500e+02   2.7007000e+02   6.0683000e+01   2.1220000e+00
   2.2597871e+03   1.0700800e+02   2.6621600e+02   6.1798000e+01   2.1050000e+00
   2.2599397e+03   1.0679700e+02   2.6145100e+02   6.2737000e+01   2.1030000e+00
   2.2600920e+03   1.0660900e+02   2.5712900e+02   5.9895000e+01   2.1040000e+00
   2.2602444e+03   1.0620600e+02   2.5649100e+02   5.7303000e+01   2.1030000e+00
   2.2603967e+03   1.0604000e+02   2.5552100e+02   5.8794000e+01   2.0970000e+00
   2.2605493e+03   1.0637300e+02   2.5739200e+02   6.1494000e+01   2.0980000e+00
   2.2607017e+03   1.0726300e+02   2.5696900e+02   6.2345000e+01   2.1110000e+00
   2.2608540e+03   1.0805600e+02   2.5449700e+02   6.0518000e+01   2.1220000e+00
   2.2610063e+03   1.0842300e+02   2.4903900e+02   5.7316000e+01   2.1200000e+00
   2.2611589e+03   1.0839300e+02   2.4663100e+02   5.6554000e+01   2.1220000e+00
   2.2613113e+03   1.0825700e+02   2.4721400e+02   5.7774000e+01   2.1320000e+00
   2.2614636e+03   1.0806400e+02   2.4690800e+02   6.0019000e+01   2.1410000e+00
   2.2616160e+03   1.0796400e+02   2.4452600e+02   6.2316000e+01   2.1450000e+00
   2.2617683e+03   1.0807100e+02   2.4011500e+02   6.3720000e+01   2.1480000e+00
   2.2619209e+03   1.0865200e+02   2.3794500e+02   6.2914000e+01   2.1550000e+00
   2.2620732e+03   1.0967500e+02   2.4067900e+02   6.1990000e+01   2.1630000e+00
   2.2622256e+03   1.1132100e+02   2.4798000e+02   6.3767000e+01   2.1690000e+00
   2.2623779e+03   1.1306800e+02   2.5555500e+02   6.7206000e+01   2.1740000e+00
   2.2625305e+03   1.1480700e+02   2.6144400e+02   7.4234000e+01   2.1760000e+00
   2.2626829e+03   1.1604100e+02   2.6484600e+02   7.6124000e+01   2.1700000e+00
   2.2628352e+03   1.1660200e+02   2.6913300e+02   7.4752000e+01   2.1730000e+00
   2.2629875e+03   1.1667400e+02   2.7397700e+02   7.5972000e+01   2.2000000e+00
   2.2631401e+03   1.1657300e+02   2.8096600e+02   7.9832000e+01   2.2430000e+00
   2.2632925e+03   1.1620900e+02   2.8264200e+02   8.5068000e+01   2.2760000e+00
   2.2634448e+03   1.1546300e+02   2.8161600e+02   8.8454000e+01   2.2900000e+00
   2.2635972e+03   1.1407200e+02   2.7643300e+02   8.5232000e+01   2.2920000e+00
   2.2637495e+03   1.1310200e+02   2.6995400e+02   8.2376000e+01   2.2900000e+00
   2.2639021e+03   1.1284000e+02   2.6439500e+02   8.5298000e+01   2.2860000e+00
   2.2640544e+03   1.1332800e+02   2.6168400e+02   8.3813000e+01   2.2720000e+00
   2.2642068e+03   1.1351200e+02   2.6234300e+02   7.8902000e+01   2.2430000e+00
   2.2643591e+03   1.1392200e+02   2.6428600e+02   7.7096000e+01   2.2100000e+00
   2.2645117e+03   1.1548200e+02   2.6649800e+02   7.3490000e+01   2.1970000e+00
   2.2646641e+03   1.1792600e+02   2.6968800e+02   7.0318000e+01   2.2110000e+00
   2.2648164e+03   1.2116200e+02   2.7553600e+02   7.1343000e+01   2.2230000e+00
   2.2649688e+03   1.2388700e+02   2.8586800e+02   7.1961000e+01   2.2170000e+00
   2.2651213e+03   1.2574800e+02   2.9719700e+02   7.4795000e+01   2.2040000e+00
   2.2652737e+03   1.2637800e+02   3.0446300e+02   8.1902000e+01   2.1930000e+00
   2.2654260e+03   1.2570800e+02   3.0632000e+02   8.3464000e+01   2.1730000e+00
   2.2655784e+03   1.2467400e+02   3.0209400e+02   7.8655000e+01   2.1400000e+00
   2.2657307e+03   1.2378700e+02   2.9860100e+02   7.2799000e+01   2.1110000e+00
   2.2658833e+03   1.2339700e+02   2.9665900e+02   6.6820000e+01   2.1020000e+00
