~Version Information Section
VERS. 2.0 : CWLS Log ASCII Standard - VERSION 2.0
WRAP. NO  : One Line per depth Step
~Well Information Section
#MNEM.UNIT                     Data                         Information
#----------   ------------------------------------------   ----------------
STRT.M                             200.0000 : Start Depth
STOP.M                            5021.0000 : Stop Depth
NULL.        -9999.00000                        : Null Value
COMP.UPDATED NORSKHYDR                      : Company Name
WELL.        WELL-3                        : Well
FLD .        GLITNE                          : Field
LOC .        META                           : Location
PROV.                                       : Province
CNTY.                                       : County
STAT.        META                           : State/Province
CTRY.        NORWAY                      : Nation
SRVC.        30                             : Logging Company Code
DATE.        10-20-XXXX                    : Run Date
UWI .        WELL0003                       : Unique Well Identifier
API .                                       : API Number
~Parameter Information Block
#MNEM.UNIT       Value                            Description
#---------       ---------                        -------------
~Curve Information Section
#MNEM.UNIT    API CODE                      : Curve description
#---.-----    --------                      : -----------------
DEPT .m                                      : 
Vp   .km/s                                   : Vp(in Km/s)
RHOB .G/C3                                   : Bulk Density
GR   .GAPI                                   : Gamma Ray
~Ascii
# ...
    3712.66528        2.88227        2.54540       88.04020
    3712.81763        2.87039        2.52080       95.00020
    3712.96997        2.81741        2.49810      100.66510
    3713.12231        2.78197        2.49970      104.00010
    3713.27490        2.74132        2.51530      100.96520
    3713.42725        2.75214        2.53070      100.50930
    3713.57959        2.78669        2.54420      101.58990
    3713.73193        2.80273        2.55430      101.51440
    3713.88452        2.79153        2.54900      105.51550
    3714.03687        2.77091        2.52680      104.09030
    3714.18921        2.75214        2.49240      108.90330
    3714.34155        2.72148        2.49470      105.59910
    3714.49390        2.71235        2.47410      107.95220
    3714.64648        2.73210        2.48590      112.09370
    3714.79883        2.73210        2.46360      119.30270
    3714.95117        2.72145        2.46890      121.06360
    3715.10352        2.69735        2.45240      113.77430
    3715.25610        2.69735        2.46480      115.69140
    3715.40845        2.68842        2.46480      115.37360
    3715.56079        2.70330        2.46590      118.68910
    3715.71313        2.75206        2.47690      116.78590
    3715.86548        2.77091        2.47950      121.02080
    3716.01807        2.75681        2.46610      129.24921
    3716.17041        2.75214        2.43870      127.83720
    3716.32275        2.72148        2.45280      128.55231
    3716.47510        2.72752        2.47010      126.70580
    3716.62769        2.72752        2.45930      135.97040
    3716.78003        2.74132        2.41630      132.14980
    3716.93237        2.72146        2.39730      130.77521
    3717.08472        2.72143        2.40970      125.47080
    3717.23730        2.69735        2.45200      124.38650
    3717.38965        2.70783        2.48630      123.14830
    3717.54199        2.73206        2.48340      117.60690
    3717.69434        2.74592        2.44460      121.80380
    3717.84668        2.74595        2.41410      123.91380
    3717.99927        2.77091        2.44120      125.31250
    3718.15161        2.77091        2.46950      117.36280
    3718.30396        2.99519        2.53310      102.45410
    3718.45630        3.11020        2.58470       97.00150
    3718.60889        3.13017        2.59130       99.99330
    3718.76123        3.15039        2.55280      111.38240
    3718.91357        2.96670        2.49710      116.00140
    3719.06592        2.86549        2.48370      118.68260
    3719.21851        2.87547        2.47410      119.46660
    3719.37085        2.88227        2.46620      121.08950
    3719.52319        2.87041        2.45720      119.11600
    3719.67554        2.84863        2.45930      117.85800
    3719.82788        2.85527        2.46510      112.51800
    3719.98047        2.86533        2.46840      109.49430
    3720.13281        2.89768        2.46480      105.26570
    3720.28516        2.90977        2.49600      104.85300
    3720.43750        2.92024        2.49500      106.09600
    3720.59009        2.92024        2.50900      108.24140
    3720.74243        2.92549        2.49450      114.42210
    3720.89478        2.91502        2.46600      120.79960
    3721.04712        2.91500        2.45050      125.15470
    3721.19971        2.88227        2.43770      127.50840
    3721.35205        2.85527        2.44190      124.99080
    3721.50439        2.84363        2.45210      129.03690
    3721.65674        2.84859        2.46270      124.49400
    3721.80908        2.86533        2.45360      124.35100
    3721.96167        2.88227        2.45650      118.43780
    3722.11401        2.84362        2.43880      120.54800
    3722.26636        2.84362        2.45870      122.14410
    3722.41870        2.82222        2.44630      120.36360
    3722.57129        2.82877        2.45960      117.74510
    3722.72363        2.85527        2.46780      110.43840
    3722.87598        2.90278        2.49510      106.64840
    3723.02832        2.94308        2.51740      102.12580
    3723.18091        3.00111        2.51120      108.30900
    3723.33325        2.99558        2.49480      112.82720
    3723.48560        2.98277        2.45900      118.62030
    3723.63794        2.95389        2.45660      116.81370
    3723.79028        2.94849        2.44520      110.94470
    3723.94287        2.92024        2.44300      111.92100
    3724.09521        2.89768        2.43230      108.17520
    3724.24756        2.84868        2.45110      116.17280
    3724.39990        2.82877        2.44930      112.73690
    3724.55249        2.82222        2.45040      114.29830
    3724.70483        2.82877        2.42220      113.97090
    3724.85718        2.83369        2.43650      117.39770
    3725.00952        2.83370        2.47090      123.39600
    3725.16211        2.83865        2.47830      126.64760
    3725.31445        2.84860        2.46970      123.58080
    3725.46680        2.86531        2.42570      121.36790
    3725.61914        2.83869        2.42210      116.68570
    3725.77148        2.85527        2.43250      118.81000
    3725.92407        2.83865        2.47250      117.80150
    3726.07642        2.81246        2.46420      123.28740
    3726.22876        2.81732        2.42950      120.05410
    3726.38110        2.78674        2.41820      122.10670
    3726.53369        2.80760        2.42990      115.12050
    3726.68604        2.82877        2.44920      118.77690
    3726.83838        2.86024        2.44910      115.88110
    3726.99072        2.86029        2.43740      115.12930
    3727.14331        2.84860        2.42780      113.90410
    3727.29565        2.84860        2.43180      111.93050
    3727.44800        2.81738        2.44720      113.05190
    3727.60034        2.80278        2.44520      109.25360
    3727.75269        2.82877        2.43560      114.43150
    3727.90527        2.81246        2.44940      112.17240
    3728.05762        2.81246        2.48070      104.96070
    3728.20996        2.82221        2.52160       98.69070
    3728.36230        2.89768        2.55180       97.94480
    3728.51489        2.89768        2.56350      106.74830
    3728.66724        2.90979        2.53670      100.63130
    3728.81958        2.77742        2.49840       95.82800
    3728.97192        2.78197        2.48360       92.92540
    3729.12451        2.85527        2.46180       98.35410
    3729.27686        2.84860        2.43750      103.66150
    3729.42920        2.88222        2.42240      103.10600
    3729.58154        2.92018        2.42610      102.85200
    3729.73389        2.83865        2.46480       97.98200
    3729.88647        2.86533        2.50210       95.77070
    3730.03882        2.89253        2.53080       90.97800
    3730.19116        2.90284        2.54040       94.27360
    3730.34351        2.91500        2.52610       99.57860
    3730.49609        2.90979        2.49270      101.24520
    3730.64844        2.91500        2.46420      103.47860
    3730.80078        2.94310        2.44870       96.48490
    3730.95312        2.92552        2.45240       99.31330
    3731.10571        2.92549        2.46850       98.32380
    3731.25806        2.93077        2.47920      107.56390
    3731.41040        2.95381        2.46750      110.72010
    3731.56274        2.96640        2.44500      110.53300
    3731.71509        2.94849        2.44280      105.39930
    3731.86768        2.93077        2.45640      103.15540
    3732.02002        2.95385        2.47200      104.53990
    3732.17236        2.95385        2.45280      103.10210
    3732.32471        2.90286        2.44900      103.22890
    3732.47729        2.94315        2.47180      106.07630
    3732.62964        2.94849        2.47660      107.91510
    3732.78198        2.98817        2.51020      104.17000
    3732.93433        3.03088        2.51800       96.75410
