~Version Information Section
VERS. 2.0 : CWLS Log ASCII Standard - VERSION 2.0
WRAP. NO  : One Line per depth Step
~Well Information Section
#MNEM.UNIT                     Data                         Information
#----------   ------------------------------------------   ----------------
STRT.M                             1360.0000 : Start Depth
STOP.M                            2763.0000 : Stop Depth
NULL.        -999.25                        : Null Value
COMP.UPDATED NORSKHYDR                      : Company Name
WELL.        WELL-1                        : Well
FLD .        GLITNE                          : Field
LOC .        META                           : Location
PROV.                                       : Province
CNTY.                                       : County
STAT.        META                           : State/Province
CTRY.        NORWAY                         : Nation
SRVC.        30                             : Logging Company Code
DATE.        11-20-XXXX                    : Run Date
UWI .        WELL0001                       : Unique Well Identifier
API .                                       : API Number
~Parameter Information Block
#MNEM.UNIT       Value                            Description
#---------       ---------                        -------------
~Curve Information Section
#MNEM.UNIT    API CODE                      : Curve description
#---.-----    --------                      : -----------------
DEPT .M                                      : 
Vp   .KM/S                                   : Vp
RHOB .G/C3                                   : Bulk Density
GR   .GAPI                                   : Gamma Ray
~Ascii
# ...
    1829.12500        2.25791        2.17620       38.50880
    1829.25000        2.27171        2.18360       37.79110
    1829.37500        2.27579        2.18840       38.90970
    1829.50000        2.29455        2.19020       41.15980
    1829.62500        2.28278        2.18980       42.86950
    1829.75000        2.25431        2.20420       42.31920
    1829.87500        2.27211        2.21720       38.56330
    1830.00000        2.29846        2.21840       37.15360
    1830.12500        2.32235        2.19820       35.44010
    1830.25000        2.34850        2.16550       36.66290
    1830.37500        2.35210        2.14510       39.06530
    1830.50000        2.31985        2.15310       40.84600
    1830.62500        2.28420        2.20170       43.66540
    1830.75000        2.31592        2.24580       43.37710
    1830.87500        2.30287        2.26300       42.41530
    1831.00000        2.25998        2.24790       39.85880
    1831.12500        2.22279        2.21580       36.73780
    1831.25000        2.22713        2.19780       35.30720
    1831.37500        2.27484        2.19460       35.92240
    1831.50000        2.27948        2.19790       36.20160
    1831.62500        2.25735        2.19970       36.44910
    1831.75000        2.25465        2.19560       35.41040
    1831.87500        2.28885        2.19880       33.18150
    1832.00000        2.31559        2.19360       32.72010
    1832.12500        2.27677        2.17050       32.43760
    1832.25000        2.39177        2.13350       32.93320
    1832.37500        2.42860        2.09680       33.50770
    1832.50000        2.38488        2.08400       32.81580
    1832.62500        2.38917        2.11430       29.70070
    1832.75000        2.39688        2.15850       25.26640
    1832.87500        2.40113        2.18950       21.08640
    1833.00000        2.39708        2.19630       18.24510
    1833.12500        2.43280        2.17900       16.61400
    1833.25000        2.50503        2.14050       15.79240
    1833.37500        2.52223        2.10790       15.36090
    1833.50000        2.54818        2.09770       16.39250
    1833.62500        2.55330        2.09540       16.41830
    1833.75000        2.55458        2.09020       16.78620
    1833.87500        2.55517        2.08350       17.20140
    1834.00000        2.55556        2.06430       17.12710
    1834.12500        2.57103        2.05410       17.88330
    1834.25000        2.58252        2.05170       17.02150
    1834.37500        2.60345        2.05740       15.83940
    1834.50000        2.61744        2.07070       15.41510
    1834.62500        2.61538        2.08670       15.93130
    1834.75000        2.60293        2.09830       16.56800
    1834.87500        2.61438        2.09700       16.06820
    1835.00000        2.60486        2.09060       14.33640
    1835.12500        2.59401        2.08590       13.26000
    1835.25000        2.59120        2.08590       13.14490
    1835.37500        2.59245        2.08430       13.85160
    1835.50000        2.56782        2.08270       15.59450
    1835.62500        2.57950        2.07810       16.13720
    1835.75000        2.58968        2.07230       16.80350
    1835.87500        2.59991        2.06810       16.89780
    1836.00000        2.61235        2.06650       16.55070
    1836.12500        2.62809        2.06950       16.50510
    1836.25000        2.65271        2.07860       15.77460
    1836.37500        2.65825        2.09140       14.82380
    1836.50000        2.67443        2.10110       14.31280
    1836.62500        2.70283        2.09970       14.69540
    1836.75000        2.73108        2.10130       16.18690
    1836.87500        2.73359        2.09880       18.66030
    1837.00000        2.71158        2.10590       18.71570
    1837.12500        2.70257        2.11330       19.48190
    1837.25000        2.68837        2.11230       19.94450
    1837.37500        2.65891        2.10750       19.64060
    1837.50000        2.61912        2.09330       18.70660
    1837.62500        2.61912        2.08130       18.00170
    1837.75000        2.63455        2.07970       16.16050
    1837.87500        2.64352        2.08710       15.46150
    1838.00000        2.65194        2.09790       14.85520
    1838.12500        2.66474        2.11870       14.20760
    1838.25000        2.67684        2.12250       15.68460
    1838.37500        2.69871        2.12410       16.17800
    1838.50000        2.71308        2.12500       16.82850
    1838.62500        2.72409        2.12280       17.12500
    1838.75000        2.73234        2.11330       17.63970
    1838.87500        2.73670        2.11490       18.94550
    1839.00000        2.73670        2.10890       19.24020
    1839.12500        2.72524        2.11000       18.12960
    1839.25000        2.69742        2.11350       17.42060
    1839.37500        2.66471        2.10850       17.62900
    1839.50000        2.62686        2.10210       18.59670
    1839.62500        2.57170        2.10600       19.58350
    1839.75000        2.55952        2.11520       20.57030
    1839.87500        2.56363        2.13100       18.14010
    1840.00000        2.58141        2.14890       16.72130
    1840.12500        2.59508        2.15800       15.55710
    1840.25000        2.59020        2.15320       13.89710
    1840.37500        2.58345        2.14190       17.63930
    1840.50000        2.59579        2.12710       17.18390
    1840.62500        2.58976        2.11720       17.38220
    1840.75000        2.58192        2.11720       16.53850
    1840.87500        2.58095        2.11720       15.22320
    1841.00000        2.58204        2.11270       16.20070
    1841.12500        2.56644        2.10670       17.13620
    1841.25000        2.56404        2.10030       16.82640
    1841.37500        2.57237        2.09980       16.44050
    1841.50000        2.59682        2.11400       16.45850
    1841.62500        2.63042        2.12520       17.25950
    1841.75000        2.63042        2.13640       19.47660
    1841.87500        2.63042        2.13760       20.03080
    1842.00000        2.59601        2.13220       21.28900
    1842.12500        2.53417        2.12730       23.70420
    1842.25000        2.45379        2.12890       26.69460
    1842.37500        2.36835        2.12120       29.21950
    1842.50000        2.32938        2.11310       32.12870
    1842.62500        2.31818        2.10850       31.19200
    1842.75000        2.50145        2.10840       30.32030
    1842.87500        2.85534        2.11160       28.94810
    1843.00000        3.21316        2.11480       26.59210
    1843.12500        3.19589        2.11800       24.61850
    1843.25000        2.97900        2.14110       27.55680
    1843.37500        2.63905        2.19140       30.32810
    1843.50000        2.38855        2.27030       34.03030
    1843.62500        2.25967        2.37450       37.61490
    1843.75000        2.22250        2.41960       39.58670
    1843.87500        2.18654        2.36880       42.68820
    1844.00000        2.15594        2.28400       42.81560
    1844.12500        2.12664        2.20730       41.05890
    1844.25000        2.11324        2.16080       37.28370
    1844.37500        2.11667        2.14960       33.25640
    1844.50000        2.11691        2.14990       33.17780
    1844.62500        2.12751        2.14930       34.12620
    1844.75000        2.13206        2.14550       35.65110
    1844.87500        2.13065        2.13910       36.17900
    1845.00000        2.12387        2.13280       36.55200
    1845.12500        2.11439        2.13440       37.84000
    1845.25000        2.11139        2.13350       37.81440
    1845.37500        2.14362        2.13280       39.40400
    1845.50000        2.17076        2.12930       39.38030
    1845.62500        2.18612        2.12250       39.25030
    1845.75000        2.18867        2.13210       39.35610
