~Version Information Section
VERS. 2.0 : CWLS Log ASCII Standard - VERSION 2.0
WRAP. NO  : One Line per depth Step
~Well Information Section
#MNEM.UNIT                     Data                         Information
#----------   ------------------------------------------   ----------------
STRT.M                             2100.0000 : Start Depth
STOP.M                            2300.0000 : Stop Depth
NULL.        -999.25                        : Null Value
COMP.UPDATED NORSKHYDR                      : Company Name
WELL.        WELL-5                        : Well
FLD .        GLITNE                         : Field
LOC .        META                           : Location
PROV.                                       : Province
CNTY.                                       : County
STAT.        META                           : State/Province
CTRY.        NORWAY                       : Nation
SRVC.        30                             : Logging Company Code
DATE.        10-20-XXXX                    : Run Date
UWI .        WELL0005                       : Unique Well Identifier
API .                                       : API Number
~Parameter Information Block
#MNEM.UNIT       Value                            Description
#---------       ---------                        -------------
~Curve Information Section
#MNEM.UNIT    API CODE                      : Curve description
#---.-----    --------                      : -----------------
DEPT .m                                      : 
Vp   .km/s                                   : Vp(in Km/s)
Vs   .km/s                                   : Vs(in km/s)
GR   .GAPI                                   : Gamma Ray
RHOB .G/C3                                   : Bulk Density
~Ascii
# ...
   2.2358604e+03   9.8056000e+01   2.0373800e+02   6.4256000e+01   2.1350000e+00
   2.2360129e+03   9.7113000e+01   2.0267400e+02   6.3082000e+01   2.1330000e+00
   2.2361653e+03   9.6739000e+01   2.0116300e+02   6.3509000e+01   2.1370000e+00
   2.2363176e+03   9.7219000e+01   2.0097300e+02   6.3423000e+01   2.1420000e+00
   2.2364700e+03   9.7876000e+01   2.0057900e+02   6.3787000e+01   2.1490000e+00
   2.2366223e+03   9.8486000e+01   2.0274400e+02   6.3669000e+01   2.1530000e+00
   2.2367749e+03   9.8950000e+01   2.0445900e+02   6.1370000e+01   2.1510000e+00
   2.2369272e+03   9.9348000e+01   2.0663700e+02   6.0487000e+01   2.1510000e+00
   2.2370796e+03   9.9591000e+01   2.0698900e+02   6.2683000e+01   2.1560000e+00
   2.2372319e+03   9.9677000e+01   2.0737100e+02   6.5678000e+01   2.1590000e+00
   2.2373845e+03   1.0002100e+02   2.0746500e+02   6.6444000e+01   2.1510000e+00
   2.2375369e+03   1.0114000e+02   2.0873800e+02   6.4680000e+01   2.1400000e+00
   2.2376892e+03   1.0320500e+02   2.1205300e+02   6.4430000e+01   2.1440000e+00
   2.2378416e+03   1.0596800e+02   2.1867100e+02   6.3590000e+01   2.1520000e+00
   2.2379941e+03   1.0845400e+02   2.2557700e+02   6.3531000e+01   2.1460000e+00
   2.2381465e+03   1.1050700e+02   2.3173700e+02   6.7063000e+01   2.1240000e+00
   2.2382988e+03   1.1154100e+02   2.3610400e+02   7.1108000e+01   2.1040000e+00
   2.2384512e+03   1.1108900e+02   2.3753600e+02   7.9703000e+01   2.1220000e+00
   2.2386035e+03   1.0877700e+02   2.3998800e+02   8.8597000e+01   2.1650000e+00
   2.2387561e+03   1.0528400e+02   2.3899900e+02   8.9477000e+01   2.2070000e+00
   2.2389084e+03   1.0281500e+02   2.3872300e+02   8.9025000e+01   2.2620000e+00
   2.2390608e+03   1.0227200e+02   2.3583200e+02   8.7069000e+01   2.3010000e+00
   2.2392131e+03   1.0370200e+02   2.3375500e+02   7.7555000e+01   2.2770000e+00
   2.2393657e+03   1.0568400e+02   2.3156100e+02   6.7924000e+01   2.2170000e+00
   2.2395181e+03   1.0700500e+02   2.3036500e+02   6.7031000e+01   2.1690000e+00
   2.2396704e+03   1.0762500e+02   2.3067700e+02   6.7680000e+01   2.1520000e+00
   2.2398228e+03   1.0790700e+02   2.3307700e+02   6.5925000e+01   2.1620000e+00
   2.2399753e+03   1.0791200e+02   2.3662700e+02   6.6957000e+01   2.1950000e+00
   2.2401277e+03   1.0794000e+02   2.4082000e+02   7.3637000e+01   2.2480000e+00
   2.2402800e+03   1.0816200e+02   2.4552800e+02   8.3112000e+01   2.3020000e+00
   2.2404324e+03   1.0978600e+02   2.5222800e+02   8.6493000e+01   2.3200000e+00
   2.2405847e+03   1.1152200e+02   2.6014800e+02   8.6396000e+01   2.2980000e+00
   2.2407373e+03   1.1262500e+02   2.6852800e+02   8.6979000e+01   2.2730000e+00
   2.2408896e+03   1.1318500e+02   2.7589900e+02   8.7780000e+01   2.2620000e+00
   2.2410420e+03   1.1355800e+02   2.7875300e+02   8.9367000e+01   2.2480000e+00
   2.2411943e+03   1.1392600e+02   2.7866700e+02   8.7734000e+01   2.2340000e+00
   2.2413469e+03   1.1374000e+02   2.7471900e+02   8.3428000e+01   2.2260000e+00
   2.2414993e+03   1.1346100e+02   2.7233700e+02   8.1649000e+01   2.2230000e+00
   2.2416516e+03   1.1352700e+02   2.7031600e+02   8.1251000e+01   2.2250000e+00
   2.2418040e+03   1.1275100e+02   2.7156600e+02   8.0979000e+01   2.2310000e+00
   2.2419565e+03   1.1140100e+02   2.7205800e+02   8.3306000e+01   2.2380000e+00
   2.2421089e+03   1.1037900e+02   2.7032100e+02   8.5756000e+01   2.2370000e+00
   2.2422612e+03   1.1022700e+02   2.6629700e+02   8.3584000e+01   2.2170000e+00
   2.2424136e+03   1.0989100e+02   2.6110100e+02   7.7307000e+01   2.1840000e+00
   2.2425659e+03   1.0969900e+02   2.5741200e+02   7.7345000e+01   2.1660000e+00
   2.2427185e+03   1.0998500e+02   2.5451100e+02   7.7082000e+01   2.1340000e+00
   2.2428708e+03   1.1113700e+02   2.5383900e+02   7.0699000e+01   2.1040000e+00
   2.2430232e+03   1.1253200e+02   2.5407300e+02   6.5122000e+01   2.0900000e+00
   2.2431755e+03   1.1381200e+02   2.5540300e+02   6.4552000e+01   2.0870000e+00
   2.2433281e+03   1.1511400e+02   2.5947500e+02   6.6431000e+01   2.0960000e+00
   2.2434805e+03   1.1577000e+02   2.6624000e+02   7.2048000e+01   2.1270000e+00
   2.2436328e+03   1.1579300e+02   2.7486100e+02   7.9603000e+01   2.1680000e+00
   2.2437852e+03   1.1533200e+02   2.8372700e+02   8.1849000e+01   2.2020000e+00
   2.2439377e+03   1.1550400e+02   2.9014000e+02   7.9066000e+01   2.2280000e+00
   2.2440901e+03   1.1602400e+02   2.9428800e+02   7.7105000e+01   2.2450000e+00
   2.2442424e+03   1.1666700e+02   2.9708500e+02   7.8367000e+01   2.2450000e+00
   2.2443948e+03   1.1716200e+02   3.0003300e+02   8.1555000e+01   2.2330000e+00
   2.2445471e+03   1.1746200e+02   3.0241900e+02   8.3266000e+01   2.2170000e+00
   2.2446997e+03   1.1765800e+02   3.0312500e+02   8.5678000e+01   2.2070000e+00
   2.2448521e+03   1.1763400e+02   3.0259300e+02   8.6962000e+01   2.2090000e+00
   2.2450044e+03   1.1713700e+02   3.0100900e+02   8.4832000e+01   2.2190000e+00
   2.2451567e+03   1.1606900e+02   2.9890900e+02   8.4351000e+01   2.2290000e+00
   2.2453093e+03   1.1445300e+02   2.9534100e+02   8.4948000e+01   2.2320000e+00
   2.2454617e+03   1.1348900e+02   2.9099900e+02   8.4935000e+01   2.2290000e+00
   2.2456140e+03   1.1351800e+02   2.8462100e+02   7.6250000e+01   2.2280000e+00
   2.2457664e+03   1.1454900e+02   2.8310900e+02   7.2214000e+01   2.2310000e+00
   2.2459189e+03   1.1553700e+02   2.8549500e+02   7.4520000e+01   2.2400000e+00
   2.2460713e+03   1.1614700e+02   2.8938800e+02   7.8558000e+01   2.2430000e+00
   2.2462236e+03   1.1637900e+02   2.9259800e+02   8.4030000e+01   2.2460000e+00
   2.2463760e+03   1.1635500e+02   2.9465000e+02   8.4387000e+01   2.2470000e+00
   2.2465283e+03   1.1667900e+02   2.9541700e+02   8.2485000e+01   2.2420000e+00
   2.2466809e+03   1.1735500e+02   2.9163900e+02   8.1863000e+01   2.2290000e+00
   2.2468333e+03   1.1841300e+02   2.8485700e+02   8.1441000e+01   2.2180000e+00
   2.2469856e+03   1.1793900e+02   2.7635300e+02   7.8078000e+01   2.2050000e+00
   2.2471379e+03   1.1683700e+02   2.7031800e+02   7.5448000e+01   2.1970000e+00
   2.2472905e+03   1.1579600e+02   2.6871400e+02   7.5749000e+01   2.2110000e+00
   2.2474429e+03   1.1504500e+02   2.7066700e+02   7.7089000e+01   2.2380000e+00
   2.2475952e+03   1.1410500e+02   2.7167100e+02   7.9510000e+01   2.2430000e+00
   2.2477476e+03   1.1370000e+02   2.7181900e+02   7.9797000e+01   2.2210000e+00
   2.2479001e+03   1.1306900e+02   2.7091400e+02   7.4951000e+01   2.1910000e+00
   2.2480525e+03   1.1294800e+02   2.7187600e+02   7.2321000e+01   2.1690000e+00
   2.2482048e+03   1.1350600e+02   2.7394400e+02   7.5809000e+01   2.1600000e+00
   2.2483572e+03   1.1540700e+02   2.7800100e+02   7.6759000e+01   2.1720000e+00
   2.2485095e+03   1.1798500e+02   2.8551600e+02   7.7081000e+01   2.2000000e+00
   2.2486621e+03   1.2106100e+02   2.9493600e+02   7.9231000e+01   2.1940000e+00
   2.2488145e+03   1.2345900e+02   3.0734000e+02   8.0313000e+01   2.1800000e+00
   2.2489668e+03   1.2498300e+02   3.1613800e+02   8.1536000e+01   2.1770000e+00
   2.2491191e+03   1.2568200e+02   3.2206500e+02   8.3791000e+01   2.1840000e+00
   2.2492717e+03   1.2564500e+02   3.2275800e+02   8.3938000e+01   2.1990000e+00
   2.2494241e+03   1.2387300e+02   3.1841100e+02   8.2290000e+01   2.2240000e+00
   2.2495764e+03   1.2072700e+02   3.0954500e+02   7.9881000e+01   2.2540000e+00
   2.2497288e+03   1.1815400e+02   3.0025700e+02   8.1667000e+01   2.2600000e+00
   2.2498813e+03   1.1680600e+02   2.9406000e+02   8.2760000e+01   2.2320000e+00
   2.2500337e+03   1.1689600e+02   2.9017900e+02   7.9465000e+01   2.1920000e+00
   2.2501860e+03   1.1808400e+02   2.8866300e+02   7.8234000e+01   2.1710000e+00
   2.2503384e+03   1.2047900e+02   2.8975700e+02   7.7216000e+01   2.1730000e+00
   2.2504907e+03   1.2240800e+02   2.9083600e+02   7.4977000e+01   2.1900000e+00
   2.2506433e+03   1.2287400e+02   2.8949600e+02   7.7567000e+01   2.2130000e+00
   2.2507957e+03   1.2185000e+02   2.8574900e+02   8.3694000e+01   2.2270000e+00
