~Version Information Section
VERS. 2.0 : CWLS Log ASCII Standard - VERSION 2.0
WRAP. NO  : One Line per depth Step
~Well Information Section
#MNEM.UNIT                     Data                         Information
#----------   ------------------------------------------   ----------------
STRT.M                             1993.0000 : Start Depth
STOP.M                            2191.0000 : Stop Depth
NULL.        -999.25                        : Null Value
COMP.UPDATED NORSKHYDR                      : Company Name
WELL.        WELL-4                        : Well
FLD .        GLITNE                         : Field
LOC .        META                           : Location
PROV.                                       : Province
CNTY.                                       : County
STAT.        META                           : State/Province
CTRY.        NORWAY                       : Nation
SRVC.        30                             : Logging Company Code
DATE.        10-20-XXXX                    : Run Date
UWI .        WELL0004                       : Unique Well Identifier
API .                                       : API Number
~Parameter Information Block
#MNEM.UNIT       Value                            Description
#---------       ---------                        -------------
~Curve Information Section
#MNEM.UNIT    API CODE                      : Curve description
#---.-----    --------                      : -----------------
DEPT .m                                      : 
Vp   .km/s                                   : Vp(in Km/s)
RHOB .G/C3                                   : Bulk Density
GR   .GAPI                                   : Gamma Ray
~Ascii
# ...
    2013.86243        2.29001        2.10940       97.85350
    2014.01477        2.28486        2.12130      103.84810
    2014.16724        2.29001        2.12800      105.25940
    2014.31958        2.29173        2.13820      104.04840
    2014.47205        2.27973        2.16450      104.19510
    2014.62439        2.29173        2.17310      103.99910
    2014.77686        2.31084        2.18010      106.50110
    2014.92920        2.33563        2.14790      108.21040
    2015.08154        2.32850        2.13680      109.70000
    2015.23401        2.33922        2.12990      109.13390
    2015.38635        2.34823        2.12880      104.73310
    2015.53882        2.35185        2.13220      105.31230
    2015.69116        2.34101        2.13730      103.49000
    2015.84363        2.35367        2.13610      106.08440
    2015.99597        2.34101        2.12890      106.10870
    2016.14844        2.33742        2.12970      106.49250
    2016.30078        2.39623        2.14640      106.72530
    2016.45325        2.41139        2.18180      105.78860
    2016.60559        2.38125        2.17670      103.46090
    2016.75806        2.33206        2.15030      106.06090
    2016.91040        2.38871        2.12640      109.89120
    2017.06274        2.40000        2.12090      107.09370
    2017.21521        2.38871        2.11860      107.01920
    2017.36755        2.43062        2.09960      108.90550
    2017.52002        2.36279        2.08360      107.48030
    2017.67236        2.37754        2.06150      104.12780
    2017.82483        2.38125        2.07780      103.99220
    2017.97717        2.38498        2.07550      107.35410
    2018.12964        2.35004        2.10330      109.86690
    2018.28198        2.39059        2.11210      109.87940
    2018.43445        2.35913        2.11310      105.85550
    2018.58679        2.36279        2.11870      106.90710
    2018.73926        2.36096        2.12920      108.62270
    2018.89160        2.32140        2.14400      105.43640
    2019.04395        2.33742        2.16390      108.87860
    2019.19641        2.30211        2.17610      105.82710
    2019.34875        2.27633        2.18160      102.21210
    2019.50122        2.32494        2.17910      103.56990
    2019.65356        2.32317        2.17580      102.00870
    2019.80603        2.32672        2.23000      104.19700
    2019.95837        2.30211        2.30550      104.85450
    2020.11084        2.35367        2.33420      104.70690
    2020.26318        2.35004        2.26570      105.21090
    2020.41565        2.39246        2.20850      105.11750
    2020.56799        2.38684        2.19970      107.60050
    2020.72046        2.32140        2.19200      108.28160
    2020.87280        2.32850        2.20450      108.07090
    2021.02515        2.32140        2.20090      107.31310
    2021.17761        2.20231        2.20610      110.18400
    2021.32996        2.22482        2.19140      102.83720
    2021.48242        2.30734        2.19730      110.10710
    2021.63477        2.30211        2.19550      111.88040
    2021.78723        2.32317        2.19190      112.65430
    2021.93958        2.30385        2.16910      110.21050
    2022.09204        2.21190        2.16230      110.65520
    2022.24438        2.14648        2.15060      113.02320
    2022.39685        2.40758        2.14840      106.64180
    2022.54919        2.37939        2.13920      104.01960
    2022.70166        2.33384        2.14910      101.85450
    2022.85400        2.36830        2.15570      105.46860
    2023.00635        2.17094        2.15270      105.34930
    2023.15881        2.18651        2.16430      107.72980
    2023.31116        2.37014        2.17620      107.69450
    2023.46362        2.40189        2.20150      108.20180
    2023.61597        2.34281        2.21540      108.40610
    2023.76843        2.33742        2.19730      108.53930
    2023.92078        2.31435        2.20700      106.02790
    2024.07324        2.31259        2.22950      109.73940
    2024.22559        2.30560        2.15100      108.49140
    2024.37805        2.32850        2.05920      102.02070
    2024.53040        2.33563        2.01600       99.12510
    2024.68274        2.29345        2.06370      101.17030
    2024.83521        2.31435        2.11460      103.13580
    2024.98755        2.29864        2.14380      104.62250
    2025.14001        2.28829        2.12660      107.91900
    2025.29236        2.31611        2.08150      100.83230
    2025.44482        2.30734        2.04400      107.56660
    2025.59717        2.30560        2.02960      101.22290
    2025.74963        2.27293        2.04710      108.01690
    2025.90198        2.21512        2.06800      110.24990
    2026.05444        2.22157        2.09690      103.63780
    2026.20679        2.23953        2.10630      104.62580
    2026.35925        2.27973        2.10310      103.79010
    2026.51160        2.27124        2.08660      106.26580
    2026.66394        2.26617        2.10850      106.52170
    2026.81641        2.27293        2.11540      108.77790
    2026.96875        2.28829        2.11760      105.91430
    2027.12122        2.26617        2.10640      105.39270
    2027.27356        2.30211        2.09080       99.48140
    2027.42603        2.31259        2.08040       99.53570
    2027.57837        2.31259        2.09710      102.26720
    2027.73083        2.38125        2.11560      100.38010
    2027.88318        2.46602        2.16400       99.68490
    2028.03564        2.59404        2.16300      100.36620
    2028.18799        2.56998        2.15130      102.23690
    2028.34045        2.53367        2.13580      106.27550
    2028.49280        2.45806        2.14700      104.43730
    2028.64514        2.31259        2.13840      104.96390
    2028.79761        2.29864        2.14530      106.95840
    2028.94995        2.29001        2.12640      105.67040
    2029.10242        2.27293        2.13710       98.80000
    2029.25476        2.27803        2.15410       97.40630
    2029.40723        2.34823        2.19310       98.71500
    2029.55957        2.36462        2.17010       97.35330
    2029.71204        2.37198        2.12910      103.28320
    2029.86438        2.38311        2.10410       99.53220
    2030.01685        2.34101        2.09440       97.60690
    2030.16919        2.39246        2.11180       93.55310
    2030.32166        2.36830        2.11770       96.48200
    2030.47400        2.36830        2.12530       96.38430
    2030.62634        2.36830        2.14660       99.07190
    2030.77881        2.28144        2.17380       97.46280
    2030.93115        2.25444        2.18080       97.36330
    2031.08362        2.27293        2.14360       94.60810
    2031.23596        2.30734        2.09340      105.43290
    2031.38843        2.32850        2.08590       99.43670
    2031.54077        2.39811        2.09910       99.38230
    2031.69324        2.41521        2.11650       99.86900
    2031.84558        2.42289        2.11950       99.80640
    2031.99805        2.38125        2.12290      101.22160
    2032.15039        2.37568        2.13850       95.73950
    2032.30286        2.35367        2.13650       93.77910
    2032.45520        2.34281        2.13200       95.13890
    2032.60754        2.31259        2.10400       96.05460
    2032.76001        2.28315        2.09540       94.43700
    2032.91235        2.25611        2.09120      101.48390
    2033.06482        2.27463        2.12350      104.41470
    2033.21716        2.26955        2.13640      108.25870
    2033.36963        2.31435        2.12310      112.54730
    2033.52197        2.36279        2.14070      114.28020
    2033.67444        2.40949        2.19370      116.94830
    2033.82678        2.39059        2.29040      100.16600
    2033.97925        2.40379        2.31000      101.98410
    2034.13159        2.38871        2.28380      100.23270
