~Version Information Section
VERS. 2.0 : CWLS Log ASCII Standard - VERSION 2.0
WRAP. NO  : One Line per depth Step
~Well Information Section
#MNEM.UNIT                     Data                         Information
#----------   ------------------------------------------   ----------------
STRT.M                             1360.0000 : Start Depth
STOP.M                            2763.0000 : Stop Depth
NULL.        -999.25                        : Null Value
COMP.UPDATED NORSKHYDR                      : Company Name
WELL.        WELL-1                        : Well
FLD .        GLITNE                          : Field
LOC .        META                           : Location
PROV.                                       : Province
CNTY.                                       : County
STAT.        META                           : State/Province
CTRY.        NORWAY                         : Nation
SRVC.        30                             : Logging Company Code
DATE.        11-20-XXXX                    : Run Date
UWI .        WELL0001                       : Unique Well Identifier
API .                                       : API Number
~Parameter Information Block
#MNEM.UNIT       Value                            Description
#---------       ---------                        -------------
~Curve Information Section
#MNEM.UNIT    API CODE                      : Curve description
#---.-----    --------                      : -----------------
DEPT .M                                      : 
Vp   .KM/S                                   : Vp
RHOB .G/C3                                   : Bulk Density
GR   .GAPI                                   : Gamma Ray
~Ascii
# ...
    2097.12500        2.63999        2.22940       43.23240
    2097.25000        2.60473        2.22580       42.39290
    2097.37500        2.55321        2.22910       44.72580
    2097.50000        2.50223        2.22540       46.56660
    2097.62500        2.48550        2.20550       43.90090
    2097.75000        2.54276        2.17830       37.15190
    2097.87500        2.60613        2.16060       32.71470
    2098.00000        2.63320        2.15720       30.65870
    2098.12500        2.61338        2.15860       31.49030
    2098.25000        2.57438        2.16600       36.12320
    2098.37500        2.56549        2.17760       36.66140
    2098.50000        2.59583        2.19000       38.93420
    2098.62500        2.59596        2.20320       39.10040
    2098.75000        2.61048        2.21650       38.77980
    2098.87500        2.66435        2.22980       40.39560
    2099.00000        2.62089        2.23370       43.67650
    2099.12500        2.57776        2.23760       48.25930
    2099.25000        2.56756        2.24410       51.30670
    2099.37500        2.57272        2.25100       52.48670
    2099.50000        2.56521        2.24670       50.97070
    2099.62500        2.52317        2.20080       46.03830
    2099.75000        2.51039        2.15500       41.55280
    2099.87500        2.44111        2.12190       35.43090
    2100.00000        2.33376        2.10020       30.48400
    2100.12500        2.21740        2.07360       27.78380
    2100.25000        2.12273        2.05070       27.45280
    2100.37500        2.08112        2.05180       28.67030
    2100.50000        2.14568        2.07510       33.71600
    2100.62500        2.26392        2.10180       35.81010
    2100.75000        2.36752        2.10160       36.09120
    2100.87500        2.44205        2.06800       34.41880
    2101.00000        2.50574        2.03570       30.27360
    2101.12500        2.43394        2.01380       26.18540
    2101.25000        2.38983        1.99980       25.48350
    2101.37500        2.37279        1.98880       24.74580
    2101.50000        2.36203        1.97710       24.42710
    2101.62500        2.35302        1.96540       24.38810
    2101.75000        2.36993        1.96030       22.70660
    2101.87500        2.38897        1.96760       21.78380
    2102.00000        2.39753        1.98770       22.03130
    2102.12500        2.38561        2.01570       22.84010
    2102.25000        2.36566        2.04040       24.19500
    2102.37500        2.35849        2.04940       25.95680
    2102.50000        2.37735        2.04190       26.21310
    2102.62500        2.37718        2.02680       25.59980
    2102.75000        2.39666        2.00860       25.68570
    2102.87500        2.41938        1.99180       26.21900
    2103.00000        2.42802        1.98230       26.56690
    2103.12500        2.41539        1.98550       26.01320
    2103.25000        2.38440        1.98400       24.78290
    2103.37500        2.38206        1.97890       23.56260
    2103.50000        2.36644        1.97050       24.24320
    2103.62500        2.35198        1.96340       25.34920
    2103.75000        2.36374        1.97350       25.19820
    2103.87500        2.39806        1.99640       25.45450
    2104.00000        2.43905        2.01730       25.22670
    2104.12500        2.43899        2.03120       25.27710
    2104.25000        2.43111        2.03580       25.71590
    2104.37500        2.43968        2.03100       26.36570
    2104.50000        2.46926        2.03600       26.94650
    2104.62500        2.48786        2.05350       28.47160
    2104.75000        2.56732        2.08180       31.77920
    2104.87500        2.64309        2.11410       34.20500
    2105.00000        2.65115        2.13550       36.53130
    2105.12500        2.58399        2.14080       38.43680
    2105.25000        2.54637        2.12250       34.82270
    2105.37500        2.46135        2.07930       31.87950
    2105.50000        2.39352        2.05060       29.17940
    2105.62500        2.38328        2.04070       29.13530
    2105.75000        2.43059        2.06360       32.86930
    2105.87500        2.50932        2.12660       39.49280
    2106.00000        2.60155        2.18350       42.05600
    2106.12500        2.61552        2.21750       43.13800
    2106.25000        2.61480        2.19250       40.67890
    2106.37500        2.57200        2.15020       36.71070
    2106.50000        2.49043        2.12230       33.31910
    2106.62500        2.44335        2.11140       30.90970
    2106.75000        2.42340        2.10690       30.45840
    2106.87500        2.40078        2.11440       32.78630
    2107.00000        2.39005        2.13970       37.54410
    2107.12500        2.41188        2.18160       42.85030
    2107.25000        2.46789        2.21370       46.69120
    2107.37500        2.43654        2.22260       50.30520
    2107.50000        2.42101        2.20380       52.99350
    2107.62500        2.37832        2.18300       55.07410
    2107.75000        2.35605        2.17190       57.08610
    2107.87500        2.37015        2.15630       57.99610
    2108.00000        2.38248        2.15790       54.93300
    2108.12500        2.43119        2.15300       52.34420
    2108.25000        2.46698        2.15420       47.93610
    2108.37500        2.48605        2.15640       44.80830
    2108.50000        2.50202        2.15420       44.07500
    2108.62500        2.53242        2.16710       45.31350
    2108.75000        2.57966        2.19330       46.15930
    2108.87500        2.58305        2.21480       45.40860
    2109.00000        2.57352        2.22070       42.58860
    2109.12500        2.56510        2.20700       40.83820
    2109.25000        2.56420        2.17830       41.07350
    2109.37500        2.57051        2.15270       41.44700
    2109.50000        2.59066        2.12570       41.62650
    2109.62500        2.58651        2.09950       38.98420
    2109.75000        2.58512        2.08150       36.85190
    2109.87500        2.60014        2.07790       35.84710
    2110.00000        2.63128        2.08730       36.18110
    2110.12500        2.65240        2.12360       39.51320
    2110.25000        2.70413        2.14450       40.31860
    2110.37500        2.71290        2.14570       41.57790
    2110.50000        2.67520        2.12540       41.16480
    2110.62500        2.62903        2.08610       40.07820
    2110.75000        2.62402        2.06670       41.28470
    2110.87500        2.61478        2.07380       40.15690
    2111.00000        2.64655        2.09190       40.94880
    2111.12500        2.68058        2.11430       40.60310
    2111.25000        2.69315        2.13450       40.04590
    2111.37500        2.68201        2.14170       39.79600
    2111.50000        2.67960        2.14000       37.56600
    2111.62500        2.69390        2.13590       38.31340
    2111.75000        2.69641        2.13190       38.93150
    2111.87500        2.71534        2.13420       40.41880
    2112.00000        2.73854        2.14870       42.05470
    2112.12500        2.72789        2.15780       42.27310
    2112.25000        2.66194        2.14550       41.32480
    2112.37500        2.64951        2.11660       39.03330
    2112.50000        2.62101        2.08470       34.41230
    2112.62500        2.58990        2.06300       29.17190
    2112.75000        2.58459        2.05960       24.81820
    2112.87500        2.63309        2.06590       21.63000
    2113.00000        2.61802        2.07050       22.07860
    2113.12500        2.61856        2.07370       22.53750
    2113.25000        2.61986        2.07620       22.04380
    2113.37500        2.61260        2.07610       20.83920
    2113.50000        2.59757        2.08110       19.99380
    2113.62500        2.60326        2.08560       21.45480
    2113.75000        2.59853        2.08840       23.37330
