~Version Information Section
VERS. 2.0 : CWLS Log ASCII Standard - VERSION 2.0
WRAP. NO  : One Line per depth Step
~Well Information Section
#MNEM.UNIT                     Data                         Information
#----------   ------------------------------------------   ----------------
STRT.M                             200.0000 : Start Depth
STOP.M                            5021.0000 : Stop Depth
NULL.        -9999.00000                        : Null Value
COMP.UPDATED NORSKHYDR                      : Company Name
WELL.        WELL-3                        : Well
FLD .        GLITNE                          : Field
LOC .        META                           : Location
PROV.                                       : Province
CNTY.                                       : County
STAT.        META                           : State/Province
CTRY.        NORWAY                      : Nation
SRVC.        30                             : Logging Company Code
DATE.        10-20-XXXX                    : Run Date
UWI .        WELL0003                       : Unique Well Identifier
API .                                       : API Number
~Parameter Information Block
#MNEM.UNIT       Value                            Description
#---------       ---------                        -------------
~Curve Information Section
#MNEM.UNIT    API CODE                      : Curve description
#---.-----    --------                      : -----------------
DEPT .m                                      : 
Vp   .km/s                                   : Vp(in Km/s)
RHOB .G/C3                                   : Bulk Density
GR   .GAPI                                   : Gamma Ray
~Ascii
# ...
    2119.78052        2.44329        2.26240       48.34380
    2119.93286        2.36738        2.24970       49.90630
    2120.08521        2.36279        2.23610       46.34380
    2120.23755        2.34913        2.24230       42.09380
    2120.38989        2.36279        2.27110       41.31250
    2120.54248        2.35594        2.28650       44.15630
    2120.69482        2.37198        2.30950       45.78120
    2120.84717        2.40468        2.32540       42.38040
    2120.99951        2.40473        2.34520       42.53130
    2121.15210        2.34236        2.34170       45.87500
    2121.30444        2.32672        2.32490       48.71870
    2121.45679        2.31349        2.28250       50.59080
    2121.60913        2.34462        2.26780       53.59370
    2121.76172        2.33787        2.25630       53.46880
    2121.91406        2.40830        2.25470       45.03130
    2122.06641        2.49836        2.26620       41.31250
    2122.21875        2.49446        2.29870       41.41330
    2122.37109        2.45417        2.32080       45.80960
    2122.52368        2.34462        2.32280       44.03120
    2122.67603        2.26828        2.29270       46.75000
    2122.82837        2.26197        2.27100       47.28130
    2122.98071        2.28321        2.24750       50.50340
    2123.13330        2.32458        2.24900       52.59380
    2123.28564        2.37429        2.24970       52.65620
    2123.43799        2.36738        2.25220       48.46880
    2123.59033        2.37195        2.26170       43.68170
    2123.74292        2.35366        2.27480       40.09270
    2123.89526        2.34913        2.28420       39.40630
    2124.04761        2.42748        2.30360       38.00000
    2124.19995        2.36280        2.32290       39.50690
    2124.35229        2.36734        2.31040       43.78780
    2124.50488        2.34462        2.27590       47.87500
    2124.65723        2.30255        2.26050       48.53130
    2124.80957        2.36279        2.26520       52.03120
    2124.96191        2.35591        2.27520       49.31840
    2125.11450        2.33794        2.27140       52.97010
    2125.26685        2.37893        2.25710       53.84380
    2125.41919        2.37198        2.25090       55.50000
    2125.57153        2.41909        2.26050       54.70710
    2125.72412        2.44701        2.28580       47.45910
    2125.87646        2.47428        2.30980       41.43750
    2126.02881        2.45806        2.33080       35.81250
    2126.18115        2.41896        2.32360       40.00570
    2126.33350        2.36284        2.30940       43.54720
    2126.48608        2.39293        2.30020       53.50000
    2126.63843        2.39293        2.29080       51.34380
    2126.79077        2.37893        2.27550       57.25000
    2126.94312        2.37893        2.26840       58.90620
    2127.09570        2.41545        2.26700       58.37500
    2127.24805        2.36279        2.27150       53.28120
    2127.40039        2.37893        2.28220       47.43750
    2127.55273        2.37429        2.30030       46.50000
    2127.70508        2.32008        2.31500       44.34370
    2127.85767        2.32450        2.32130       45.03130
    2128.01001        2.38942        2.31410       47.93750
    2128.16235        2.35365        2.29690       54.15070
    2128.31470        2.34462        2.28060       50.65630
    2128.46729        2.32672        2.27820       50.03130
    2128.61963        2.25778        2.27740       51.21870
    2128.77197        2.25778        2.27010       54.81250
    2128.92432        2.26197        2.25250       56.87500
    2129.07690        2.25778        2.23730       50.87500
    2129.22925        2.34913        2.23760       48.78130
    2129.38159        2.37893        2.24990       44.34370
    2129.53394        2.39293        2.26720       47.25000
    2129.68628        2.42386        2.27870       46.31250
    2129.83887        2.27463        2.27490       49.31250
    2129.99121        2.26617        2.25000       45.71880
    2130.14355        2.24520        2.22760       45.87410
    2130.29590        2.18104        2.22070       45.34380
    2130.44849        2.11117        2.21670       49.65620
    2130.60083        2.04392        2.20240       54.43750
    2130.75317        2.06644        2.18500       54.96870
    2130.90552        2.11117        2.18030       56.31250
    2131.05811        2.23501        2.19120       61.53120
    2131.21045        2.26828        2.21790       65.43750
    2131.36279        2.29173        2.24030       66.68750
    2131.51514        2.29605        2.25020       67.18750
    2131.66748        2.30255        2.25760       67.68750
    2131.82007        2.32672        2.26490       63.71870
    2131.97241        2.33787        2.27230       55.37500
    2132.12476        2.33561        2.27290       55.25770
    2132.27710        2.32447        2.26790       60.06900
    2132.42969        2.30910        2.26650       64.11810
    2132.58203        2.31347        2.27220       59.84370
    2132.73438        2.35367        2.28650       60.00000
    2132.88672        2.42746        2.29830       55.75370
    2133.03931        2.41896        2.31070       58.05810
    2133.19165        2.36272        2.32440       55.34860
    2133.34399        2.31787        2.32350       58.40620
    2133.49634        2.25569        2.28940       54.69070
    2133.64868        2.25571        2.25640       56.68840
    2133.80127        2.26839        2.23610       57.25470
    2133.95361        2.34236        2.22720       60.21880
    2134.10596        2.28956        2.22260       58.65260
    2134.25830        2.27879        2.21940       56.37030
    2134.41089        2.22268        2.20950       53.47120
    2134.56323        2.15597        2.18800       55.00000
    2134.71558        2.15979        2.17470       57.28130
    2134.86792        2.17713        2.17890       57.40640
    2135.02051        2.17140        2.20320       57.52750
    2135.17285        2.21878        2.22110       55.18710
    2135.32520        2.24118        2.23750       54.93750
    2135.47754        2.28319        2.25460       54.16430
    2135.62988        2.31352        2.27040       59.19120
    2135.78247        2.34460        2.27530       61.47080
    2135.93481        2.33563        2.25920       62.78120
    2136.08716        2.30255        2.23510       61.34380
    2136.23950        2.32449        2.22530       65.12310
    2136.39209        2.32013        2.22460       63.96220
    2136.54443        2.35367        2.23690       59.90630
    2136.69678        2.38942        2.26120       59.71880
    2136.84912        2.36739        2.29820       59.42420
    2137.00171        2.37198        2.32850       70.62500
    2137.15405        2.38591        2.32730       72.12500
    2137.30640        2.40000        2.30710       71.43750
    2137.45874        2.41551        2.29980       61.56660
    2137.61108        2.45435        2.30340       64.12500
    2137.76367        2.43475        2.31390       67.87500
    2137.91602        2.43111        2.31830       68.56250
    2138.06836        2.42386        2.31770       61.84370
    2138.22070        2.41549        2.30940       55.40260
    2138.37329        2.43840        2.29680       53.12500
    2138.52563        2.46677        2.28800       50.68750
    2138.67798        2.46677        2.28880       50.53130
    2138.83032        2.44331        2.30070       51.94230
    2138.98291        2.45806        2.31750       54.93750
    2139.13525        2.45435        2.33510       60.00000
    2139.28760        2.46677        2.34530       56.43750
    2139.43994        2.44328        2.34390       57.52760
    2139.59229        2.43840        2.33410       55.25000
    2139.74487        2.45806        2.32310       57.50000
    2139.89722        2.46677        2.29790       63.00000
    2140.04956        2.47052        2.29050       63.12500
