~Version Information Section
VERS. 2.0 : CWLS Log ASCII Standard - VERSION 2.0
WRAP. NO  : One Line per depth Step
~Well Information Section
#MNEM.UNIT                     Data                         Information
#----------   ------------------------------------------   ----------------
STRT.M                             1360.0000 : Start Depth
STOP.M                            2763.0000 : Stop Depth
NULL.        -999.25                        : Null Value
COMP.UPDATED NORSKHYDR                      : Company Name
WELL.        WELL-1                        : Well
FLD .        GLITNE                          : Field
LOC .        META                           : Location
PROV.                                       : Province
CNTY.                                       : County
STAT.        META                           : State/Province
CTRY.        NORWAY                         : Nation
SRVC.        30                             : Logging Company Code
DATE.        11-20-XXXX                    : Run Date
UWI .        WELL0001                       : Unique Well Identifier
API .                                       : API Number
~Parameter Information Block
#MNEM.UNIT       Value                            Description
#---------       ---------                        -------------
~Curve Information Section
#MNEM.UNIT    API CODE                      : Curve description
#---.-----    --------                      : -----------------
DEPT .M                                      : 
Vp   .KM/S                                   : Vp
RHOB .G/C3                                   : Bulk Density
GR   .GAPI                                   : Gamma Ray
~Ascii
# ...
    2649.87500        2.60392        2.26960       44.94830
    2650.00000        2.53901        2.29000       46.52550
    2650.12500        2.50045        2.28550       46.55310
    2650.25000        2.51571        2.27110       43.32600
    2650.37500        2.60499        2.24670       40.94230
    2650.50000        2.70847        2.22210       35.99750
    2650.62500        2.83705        2.20530       32.28640
    2650.75000        2.93509        2.19770       29.98950
    2650.87500        2.95878        2.19150       29.25400
    2651.00000        2.92720        2.19790       31.01680
    2651.12500        2.92432        2.21070       33.91320
    2651.25000        2.93987        2.22600       33.92810
    2651.37500        2.99137        2.23810       33.09150
    2651.50000        3.03373        2.24290       32.33460
    2651.62500        3.01099        2.24770       32.74290
    2651.75000        2.96298        2.25390       38.51000
    2651.87500        2.97694        2.25590       42.29340
    2652.00000        2.96295        2.24970       42.88980
    2652.12500        2.89730        2.23560       40.54450
    2652.25000        2.79262        2.21810       37.26430
    2652.37500        2.68698        2.20370       36.39960
    2652.50000        2.62066        2.18270       36.24590
    2652.62500        2.60931        2.16700       34.78220
    2652.75000        2.68273        2.15830       33.45750
    2652.87500        2.79911        2.15560       31.81390
    2653.00000        2.88561        2.16360       29.40370
    2653.12500        2.89545        2.16250       27.89150
    2653.25000        2.88002        2.15980       27.59400
    2653.37500        2.85136        2.15980       26.52290
    2653.50000        2.87723        2.16720       25.92200
    2653.62500        2.94120        2.18450       25.38450
    2653.75000        2.95567        2.19730       23.41970
    2653.87500        3.00801        2.21010       24.94480
    2654.00000        3.02248        2.21790       25.56480
    2654.12500        3.04390        2.22070       25.83960
    2654.25000        3.08237        2.21980       26.40340
    2654.37500        3.11655        2.21500       27.86010
    2654.50000        3.07783        2.21170       30.69240
    2654.62500        3.04764        2.19160       31.87730
    2654.75000        3.00785        2.17110       30.47070
    2654.87500        2.95401        2.15660       29.18330
    2655.00000        2.91469        2.14770       29.26610
    2655.12500        2.92094        2.16060       30.61840
    2655.25000        2.89252        2.16630       32.63040
    2655.37500        2.77190        2.17640       33.32560
    2655.50000        2.70937        2.18570       34.69960
    2655.62500        2.67686        2.18870       37.38950
    2655.75000        2.64354        2.18550       40.54740
    2655.87500        2.61897        2.16630       41.46930
    2656.00000        2.54389        2.14460       41.75120
    2656.12500        2.55879        2.13570       41.53180
    2656.25000        2.59332        2.13840       41.51940
    2656.37500        2.62940        2.14560       41.90780
    2656.50000        2.69192        2.16960       42.20920
    2656.62500        2.87409        2.18200       40.13310
    2656.75000        2.87604        2.19320       39.79810
    2656.87500        2.84027        2.19700       39.15170
    2657.00000        2.81546        2.18980       38.05200
    2657.12500        2.80883        2.17540       36.82140
    2657.25000        2.79446        2.16260       35.97300
    2657.37500        2.78529        2.15890       35.05020
    2657.50000        2.78251        2.15730       36.28600
    2657.62500        2.77813        2.15920       36.34880
    2657.75000        2.76163        2.16920       35.39940
    2657.87500        2.73344        2.19000       34.88670
    2658.00000        2.73218        2.20780       35.37370
    2658.12500        2.74150        2.21060       36.86440
    2658.25000        2.72376        2.19710       36.69040
    2658.37500        2.68575        2.17570       35.69270
    2658.50000        2.62863        2.16180       34.50090
    2658.62500        2.55246        2.15530       33.18250
    2658.75000        2.56125        2.14760       32.54170
    2658.87500        2.60402        2.14260       31.76180
    2659.00000        2.65594        2.14060       30.50250
    2659.12500        2.70696        2.14180       29.06240
    2659.25000        2.75693        2.14820       27.63620
    2659.37500        2.81968        2.15920       25.61130
    2659.50000        2.88398        2.17160       24.52240
    2659.62500        2.96219        2.18270       24.85790
    2659.75000        3.01886        2.18900       25.37030
    2659.87500        3.03429        2.18710       25.63600
    2660.00000        3.01443        2.18230       25.86480
    2660.12500        2.99620        2.17610       24.80110
    2660.25000        2.94883        2.17380       24.98850
    2660.37500        2.90310        2.17520       24.29070
    2660.50000        2.87649        2.17740       22.96850
    2660.62500        2.86979        2.17580       21.80040
    2660.75000        2.85875        2.17100       21.36470
    2660.87500        2.85185        2.17240       22.18180
    2661.00000        2.85552        2.17380       23.36980
    2661.12500        2.85259        2.17380       24.42440
    2661.25000        2.84483        2.17330       25.00420
    2661.37500        2.84107        2.16850       24.89540
    2661.50000        2.81817        2.16650       23.80610
    2661.62500        2.78746        2.16490       22.71620
    2661.75000        2.76162        2.16040       22.36800
    2661.87500        2.72733        2.15350       23.17060
    2662.00000        2.67978        2.15030       24.63230
    2662.12500        2.63150        2.14710       25.15800
    2662.25000        2.60841        2.15410       27.41360
    2662.37500        2.59831        2.16740       30.45240
    2662.50000        2.57149        2.18520       33.99170
    2662.62500        2.54608        2.20440       38.02780
    2662.75000        2.54406        2.21410       42.15630
    2662.87500        2.51607        2.21190       43.74550
    2663.00000        2.48772        2.20650       44.20480
    2663.12500        2.49751        2.19930       41.57040
    2663.25000        2.52971        2.19130       38.90320
    2663.37500        2.55694        2.18320       38.05110
    2663.50000        2.54856        2.17360       38.49460
    2663.62500        2.50033        2.17980       39.10970
    2663.75000        2.51189        2.19520       39.76670
    2663.87500        2.52808        2.21070       39.92300
    2664.00000        2.54262        2.21800       41.05200
    2664.12500        2.57445        2.21320       44.00380
    2664.25000        2.66563        2.20680       45.54170
    2664.37500        2.71460        2.20160       43.70890
    2664.50000        2.70498        2.18870       39.41300
    2664.62500        2.67210        2.16690       34.40850
    2664.75000        2.63236        2.14410       30.77590
    2664.87500        2.58356        2.13770       30.26270
    2665.00000        2.57127        2.14350       31.12130
    2665.12500        2.59806        2.14950       30.71650
    2665.25000        2.64663        2.15500       31.47880
    2665.37500        2.68054        2.16140       32.89100
    2665.50000        2.69006        2.16780       34.57850
    2665.62500        2.74596        2.19130       38.39760
    2665.75000        2.80678        2.21900       40.07060
    2665.87500        2.84359        2.24530       41.78280
    2666.00000        2.86946        2.26520       42.89500
    2666.12500        2.89099        2.27490       43.34590
    2666.25000        2.90659        2.27010       43.63290
    2666.37500        2.90944        2.26530       44.68370
    2666.50000        2.93498        2.25420       43.48630
