~Version Information Section
VERS. 2.0 : CWLS Log ASCII Standard - VERSION 2.0
WRAP. NO  : One Line per depth Step
~Well Information Section
#MNEM.UNIT                     Data                         Information
#----------   ------------------------------------------   ----------------
STRT.M                             1993.0000 : Start Depth
STOP.M                            2191.0000 : Stop Depth
NULL.        -999.25                        : Null Value
COMP.UPDATED NORSKHYDR                      : Company Name
WELL.        WELL-4                        : Well
FLD .        GLITNE                         : Field
LOC .        META                           : Location
PROV.                                       : Province
CNTY.                                       : County
STAT.        META                           : State/Province
CTRY.        NORWAY                       : Nation
SRVC.        30                             : Logging Company Code
DATE.        10-20-XXXX                    : Run Date
UWI .        WELL0004                       : Unique Well Identifier
API .                                       : API Number
~Parameter Information Block
#MNEM.UNIT       Value                            Description
#---------       ---------                        -------------
~Curve Information Section
#MNEM.UNIT    API CODE                      : Curve description
#---.-----    --------                      : -----------------
DEPT .m                                      : 
Vp   .km/s                                   : Vp(in Km/s)
RHOB .G/C3                                   : Bulk Density
GR   .GAPI                                   : Gamma Ray
~Ascii
# ...
    2095.54883        2.49379        2.23420       97.61290
    2095.70117        2.56514        2.24690       93.65550
    2095.85352        2.53317        2.25560       96.23610
    2096.00610        2.56299        2.22760      102.39440
    2096.15845        2.43794        2.19980      106.15900
    2096.31079        2.36970        2.19060      105.44300
    2096.46313        2.35688        2.23390       99.81840
    2096.61548        2.38640        2.26580       95.71170
    2096.76807        2.41285        2.26360       94.23960
    2096.92041        2.54162        2.24560       93.05510
    2097.07275        2.61578        2.22340       91.91020
    2097.22510        2.69440        2.21290      104.27430
    2097.37769        2.45561        2.20560      107.23580
    2097.53003        2.37524        2.21290      106.47830
    2097.68237        2.31043        2.20310      104.84120
    2097.83472        2.30170        2.19850      101.58470
    2097.98730        2.43404        2.19560       94.39160
    2098.13965        2.65219        2.21360       86.90190
    2098.29199        2.80602        2.21000       87.81580
    2098.44434        2.93292        2.18690       91.21070
    2098.59668        2.88026        2.17200       98.66690
    2098.74927        2.67783        2.16400      102.43240
    2098.90161        2.65450        2.19380      102.11150
    2099.05396        2.47355        2.22500      106.05260
    2099.20630        2.37524        2.21450      106.99420
    2099.35889        2.34059        2.14940      109.17900
    2099.51123        2.41667        2.06500      108.12970
    2099.66357        2.50198        1.98520       91.77930
    2099.81592        2.55654        1.98970       88.17500
    2099.96851        2.54162        2.04720       78.59720
    2100.12085        2.54586        2.09880       74.61800
    2100.27319        2.54374        2.09520       75.95890
    2100.42554        2.51644        2.08160       74.26450
    2100.57788        2.54586        2.12620       72.43300
    2100.73047        2.54374        2.17220       72.21820
    2100.88281        2.55654        2.15210       72.77480
    2101.03516        2.55012        2.09740       71.65390
    2101.18750        2.54799        2.04690       70.40230
    2101.34009        2.56514        2.05610       67.92810
    2101.49243        2.58692        2.06620       81.19980
    2101.64478        2.53106        2.11740       85.46610
    2101.79712        2.42051        2.18290       99.91130
    2101.94971        2.41094        2.23760      103.74310
    2102.10205        2.29132        2.27190      111.64570
    2102.25439        2.36419        2.27430      100.02590
    2102.40674        2.38267        2.24850       98.17240
    2102.55908        2.38267        2.21040       97.16340
    2102.71167        2.45561        2.22080       97.38400
    2102.86401        2.49583        2.24230       97.17720
    2103.01636        2.56731        2.27290       94.90680
    2103.16870        2.57164        2.26650       72.08780
    2103.32129        2.62027        2.26380       71.77150
    2103.47363        2.72328        2.26210       68.28380
    2103.62598        2.74042        2.26690       67.97110
    2103.77832        2.77789        2.26990       70.87250
    2103.93091        2.84797        2.27570       70.44400
    2104.08325        2.80602        2.29200       69.86600
    2104.23560        2.83209        2.28850       70.99350
    2104.38794        2.84531        2.29160       71.64500
    2104.54028        2.84797        2.28750       68.81990
    2104.69287        2.87212        2.29610       66.99810
    2104.84521        2.85330        2.27770       68.57970
    2104.99756        2.78550        2.26930       68.33290
    2105.14990        2.76529        2.26440       65.40980
    2105.30249        2.74042        2.26250       64.18280
    2105.45483        2.73060        2.26960       65.07510
    2105.60718        2.75529        2.27860       64.44110
    2105.75952        2.75529        2.29000       65.54670
    2105.91211        2.73305        2.29080       59.10250
    2106.06445        2.65219        2.28480       67.26960
    2106.21680        2.58692        2.27930       93.11590
    2106.36914        2.40523        2.28130      116.58040
    2106.52148        2.36602        2.28910      122.94840
    2106.67407        2.23750        2.28660      127.39310
    2106.82642        2.24243        2.27880      119.28260
    2106.97876        2.27933        2.26580      116.42740
    2107.13110        2.31043        2.27820      119.71910
    2107.28369        2.36970        2.29100      111.44960
    2107.43604        2.42436        2.29150      109.23710
    2107.58838        2.45958        2.28140      105.78060
    2107.74072        2.42244        2.27030      106.19200
    2107.89331        2.43989        2.26930      111.91390
    2108.04565        2.38453        2.26930      114.95710
    2108.19800        2.33342        2.26950      126.13440
    2108.35034        2.24409        2.26170      129.42090
    2108.50269        2.26241        2.26130      126.84930
    2108.65527        2.32452        2.26460      108.79530
    2108.80762        2.35688        2.26870       96.07210
    2108.95996        2.50815        2.26980       96.34190
    2109.11230        2.53317        2.26910       97.14830
    2109.26489        2.56299        2.27610       95.59220
    2109.41724        2.63614        2.28640       93.36430
    2109.56958        2.58035        2.29510       94.87090
    2109.72192        2.57164        2.28070       84.93080
    2109.87451        2.63614        2.26120       83.69890
    2110.02686        2.74536        2.23560       80.63920
    2110.17920        2.74536        2.24060       79.17290
    2110.33154        2.66611        2.24210       92.37390
    2110.48389        2.58035        2.25160      120.38420
    2110.63647        2.44576        2.25330      124.62430
    2110.78882        2.32630        2.25540      124.42490
    2110.94116        2.34780        2.25150      122.82040
    2111.09351        2.30868        2.24270      122.20950
    2111.24609        2.27422        2.24260      122.45900
    2111.39844        2.26915        2.24450      123.30360
    2111.55078        2.24905        2.24580      125.14650
    2111.70312        2.26577        2.22950      124.23140
    2111.85571        2.28960        2.17580      123.16070
    2112.00806        2.32452        2.15830      108.99170
    2112.16040        2.32985        2.17170      109.67750
    2112.31274        2.32985        2.23630      110.76770
    2112.46509        2.31922        2.26410      109.27720
    2112.61768        2.30693        2.25120      119.89090
    2112.77002        2.32098        2.23540      120.89010
    2112.92236        2.32807        2.23030      118.91500
    2113.07471        2.33164        2.23000      116.29710
    2113.22729        2.32807        2.24340      112.18020
    2113.37964        2.34599        2.24250      113.84130
    2113.53198        2.32630        2.24610      110.94720
    2113.68433        2.34059        2.24770      116.86980
    2113.83691        2.35506        2.24260      122.20800
    2113.98926        2.34419        2.24910      124.74730
    2114.14160        2.34239        2.25590      126.10820
    2114.29395        2.34780        2.27390      123.76290
    2114.44629        2.35506        2.28540      120.49740
    2114.59888        2.35142        2.27880      114.68550
    2114.75122        2.35870        2.24000      121.10290
    2114.90356        2.36419        2.19010      123.72820
    2115.05591        2.34599        2.15690      108.79120
    2115.20850        2.35324        2.16440      106.10480
    2115.36084        2.36419        2.20850      107.79220
    2115.51318        2.35870        2.24850      106.03150
    2115.66553        2.36419        2.27960      106.42470
    2115.81812        2.32452        2.27880      104.69680
