~Version Information Section
VERS. 2.0 : CWLS Log ASCII Standard - VERSION 2.0
WRAP. NO  : One Line per depth Step
~Well Information Section
#MNEM.UNIT                     Data                         Information
#----------   ------------------------------------------   ----------------
STRT.M                             1993.0000 : Start Depth
STOP.M                            2191.0000 : Stop Depth
NULL.        -999.25                        : Null Value
COMP.UPDATED NORSKHYDR                      : Company Name
WELL.        WELL-4                        : Well
FLD .        GLITNE                         : Field
LOC .        META                           : Location
PROV.                                       : Province
CNTY.                                       : County
STAT.        META                           : State/Province
CTRY.        NORWAY                       : Nation
SRVC.        30                             : Logging Company Code
DATE.        10-20-XXXX                    : Run Date
UWI .        WELL0004                       : Unique Well Identifier
API .                                       : API Number
~Parameter Information Block
#MNEM.UNIT       Value                            Description
#---------       ---------                        -------------
~Curve Information Section
#MNEM.UNIT    API CODE                      : Curve description
#---.-----    --------                      : -----------------
DEPT .m                                      : 
Vp   .km/s                                   : Vp(in Km/s)
RHOB .G/C3                                   : Bulk Density
GR   .GAPI                                   : Gamma Ray
~Ascii
# ...
    2075.12720        2.51071        2.37880       84.28780
    2075.27954        2.52109        2.37110       87.41990
    2075.43188        2.49020        2.36240       86.31020
    2075.58447        2.50246        2.35230       87.46410
    2075.73682        2.53367        2.34830       87.61690
    2075.88916        2.58963        2.35180       84.36510
    2076.04150        2.61856        2.35870       81.12500
    2076.19409        2.62759        2.35810       74.69570
    2076.34644        2.67838        2.34990       84.47320
    2076.49878        2.72386        2.35320       81.13490
    2076.65112        2.76839        2.35010       81.83980
    2076.80371        2.77849        2.35180       75.67340
    2076.95605        2.77849        2.35850       78.84830
    2077.10840        2.72386        2.37410       75.45560
    2077.26074        2.70453        2.39580       75.57690
    2077.41309        2.76087        2.38560       78.59190
    2077.56567        2.77849        2.37330       77.93540
    2077.71802        2.81181        2.36070       78.77910
    2077.87036        2.84860        2.35330       72.78610
    2078.02271        2.76087        2.35200       76.48930
    2078.17529        2.71658        2.35490       74.79010
    2078.32764        2.69973        2.34940       75.69880
    2078.47998        2.67838        2.33170       79.03200
    2078.63232        2.78102        2.31720       76.90350
    2078.78491        2.79633        2.32140       74.05730
    2078.93726        2.76588        2.40380       72.48980
    2079.08960        2.75588        2.49470       74.71850
    2079.24194        2.74347        2.53080       74.37890
    2079.39429        2.77343        2.44840       75.57690
    2079.54688        2.70693        2.35980       72.45300
    2079.69922        2.68783        2.32090       73.62260
    2079.85156        2.62081        2.31640       73.50950
    2080.00391        2.65737        2.30310       75.80710
    2080.15649        2.68546        2.30290       73.99840
    2080.30884        2.69735        2.30390       74.85060
    2080.46118        2.76839        2.32570       65.92040
    2080.61353        2.72874        2.34520       66.23650
    2080.76611        2.85393        2.35240       62.79650
    2080.91846        3.07258        2.34620       61.52000
    2081.07080        3.13903        2.32620       58.78760
    2081.22314        3.15202        2.31030       60.35470
    2081.37549        3.10071        2.29770       66.55380
    2081.52808        2.82222        2.29880       66.94870
    2081.68042        2.85393        2.30060       68.68810
    2081.83276        2.93642        2.30200       69.47020
    2081.98511        2.91117        2.30520       69.36470
    2082.13770        2.87819        2.29450       67.99550
    2082.29004        2.80405        2.27930       61.19840
    2082.44238        2.81440        2.27720       58.94840
    2082.59473        2.81181        2.28620       67.32380
    2082.74731        2.83271        2.28590       65.62970
    2082.89966        2.75837        2.27650       68.99830
    2083.05200        2.81961        2.26710       67.21010
    2083.20435        2.85393        2.25750       70.41380
    2083.35669        2.82484        2.24750       73.36590
    2083.50928        2.83535        2.24460       72.73600
    2083.66162        2.75588        2.23510       73.66350
    2083.81396        2.76337        2.21580       70.24230
    2083.96631        2.77343        2.19060       74.95000
    2084.11890        2.78102        2.15300       75.02120
    2084.27124        2.77343        2.11190       75.37990
    2084.42358        2.76337        2.11050       74.21050
    2084.57593        2.73609        2.14920       80.15990
    2084.72852        2.74595        2.20070       80.97110
    2084.88086        2.78102        2.22650       82.55590
    2085.03320        2.81701        2.24110       83.82670
    2085.18555        2.89184        2.26700       83.79410
    2085.33789        2.90562        2.27770       83.56520
    2085.49048        2.83799        2.28050       79.22230
    2085.64282        2.86197        2.25570       89.89360
    2085.79517        2.77849        2.23940       97.37480
    2085.94751        2.75837        2.21420       96.00100
    2086.10010        2.77596        2.12700       95.07090
    2086.25244        2.78102        2.04800       84.39290
    2086.40479        2.76087        2.05180       81.02300
    2086.55713        2.73363        2.15530       87.00560
    2086.70972        2.70693        2.22730       90.35680
    2086.86206        2.75090        2.19460       84.43970
    2087.01440        3.21519        2.17570       80.57910
    2087.16675        3.39421        2.18830       67.52930
    2087.31909        3.58167        2.21120       74.37310
    2087.47168        3.45578        2.17390       77.23390
    2087.62402        3.00296        2.15530       75.64410
    2087.77637        2.74595        2.14360       72.72460
    2087.92871        2.67603        2.17980       75.08500
    2088.08130        2.66900        2.17300       81.28260
    2088.23364        2.67368        2.15020       82.23610
    2088.38599        2.67603        2.15860       83.67350
    2088.53833        2.67838        2.19430       81.58120
    2088.69092        2.77596        2.24340       77.61850
    2088.84326        2.79890        2.25990       77.12820
    2088.99561        2.88091        2.25390       78.23700
    2089.14795        2.83271        2.19090       84.76310
    2089.30029        2.71900        2.06390       95.62150
    2089.45288        2.67368        1.96860       99.51040
    2089.60522        2.59847        1.98370      116.61710
    2089.75757        2.58524        2.08040      118.01970
    2089.90991        2.56566        2.16510      118.03170
    2090.06250        2.52662        2.18120      118.73610
    2090.21484        2.45364        2.20120      117.19930
    2090.36719        2.48565        2.24130      128.56230
    2090.51953        2.44969        2.19220      131.18700
    2090.67212        2.43016        2.11380      135.23010
    2090.82446        2.36419        1.98930      127.99860
    2090.97681        2.35506        1.91440      119.26920
    2091.12915        2.36236        1.85870      116.95640
    2091.28149        2.37524        1.86650      124.07370
    2091.43408        2.39202        1.92380      124.82410
    2091.58643        2.34599        2.02690      123.45940
    2091.73877        2.35324        2.09890      122.27710
    2091.89111        2.28788        2.11040      130.35280
    2092.04370        2.30518        2.11220      133.77650
    2092.19604        2.26241        2.11810      134.29210
    2092.34839        2.20035        2.11800      137.60690
    2092.50073        2.26073        2.10910      136.84641
    2092.65332        2.26073        2.10870      138.35629
    2092.80566        2.26577        2.11370      140.77460
    2092.95801        2.36970        2.12480      134.80099
    2093.11035        2.32985        2.14660      130.58279
    2093.26270        2.35324        2.16270      128.31160
    2093.41528        2.39578        2.15910      127.07700
    2093.56763        2.35506        2.12680      123.98930
    2093.71997        2.36786        2.03670      124.03250
    2093.87231        2.36236        1.91060      138.80060
    2094.02490        2.34961        1.83230      136.10980
    2094.17725        2.22768        1.85030      135.94521
    2094.32959        2.23258        1.96280      144.48199
    2094.48193        2.20672        2.08750      127.41110
    2094.63452        2.22931        2.12380      128.31419
    2094.78687        2.35688        2.13790      117.14610
    2094.93921        2.37710        2.16570      121.55240
    2095.09155        2.36602        2.21000      114.41550
    2095.24390        2.40334        2.22860       99.73880
    2095.39648        2.43599        2.24090       97.71790
