~Version Information Section
VERS. 2.0 : CWLS Log ASCII Standard - VERSION 2.0
WRAP. NO  : One Line per depth Step
~Well Information Section
#MNEM.UNIT                     Data                         Information
#----------   ------------------------------------------   ----------------
STRT.M                             2100.0000 : Start Depth
STOP.M                            2300.0000 : Stop Depth
NULL.        -999.25                        : Null Value
COMP.UPDATED NORSKHYDR                      : Company Name
WELL.        WELL-5                        : Well
FLD .        GLITNE                         : Field
LOC .        META                           : Location
PROV.                                       : Province
CNTY.                                       : County
STAT.        META                           : State/Province
CTRY.        NORWAY                       : Nation
SRVC.        30                             : Logging Company Code
DATE.        10-20-XXXX                    : Run Date
UWI .        WELL0005                       : Unique Well Identifier
API .                                       : API Number
~Parameter Information Block
#MNEM.UNIT       Value                            Description
#---------       ---------                        -------------
~Curve Information Section
#MNEM.UNIT    API CODE                      : Curve description
#---.-----    --------                      : -----------------
DEPT .m                                      : 
Vp   .km/s                                   : Vp(in Km/s)
Vs   .km/s                                   : Vs(in km/s)
GR   .GAPI                                   : Gamma Ray
RHOB .G/C3                                   : Bulk Density
~Ascii
   2.1000720e+03   1.2713400e+02   3.1237200e+02   8.6778000e+01   2.2620000e+00
   2.1002244e+03   1.2801700e+02   3.1365400e+02   9.0658000e+01   2.2600000e+00
   2.1003767e+03   1.2851200e+02   3.1370600e+02   1.0247900e+02   2.2670000e+00
   2.1005293e+03   1.2853400e+02   3.1636200e+02   1.1454900e+02   2.2720000e+00
   2.1006816e+03   1.2830900e+02   3.2135600e+02   1.1894800e+02   2.2750000e+00
   2.1008340e+03   1.2814600e+02   3.2376000e+02   1.1412000e+02   2.2800000e+00
   2.1009863e+03   1.2775800e+02   3.2623400e+02   1.1232400e+02   2.2820000e+00
   2.1011389e+03   1.2709700e+02   3.2858200e+02   1.1763700e+02   2.2760000e+00
   2.1012913e+03   1.2594800e+02   3.2910200e+02   1.1625600e+02   2.2670000e+00
   2.1014436e+03   1.2510500e+02   3.2642100e+02   1.0990500e+02   2.2650000e+00
   2.1015959e+03   1.2470900e+02   3.2083600e+02   1.0589900e+02   2.2720000e+00
   2.1017485e+03   1.2458500e+02   3.1660100e+02   1.0545100e+02   2.2800000e+00
   2.1019009e+03   1.2448400e+02   3.1345600e+02   1.0763800e+02   2.2810000e+00
   2.1020532e+03   1.2428800e+02   3.1256300e+02   1.0936500e+02   2.2730000e+00
   2.1022056e+03   1.2416600e+02   3.1257100e+02   1.0691100e+02   2.2630000e+00
   2.1023579e+03   1.2416300e+02   3.1228500e+02   9.7710000e+01   2.2600000e+00
   2.1025105e+03   1.2417800e+02   3.1193400e+02   8.9672000e+01   2.2650000e+00
   2.1026628e+03   1.2413500e+02   3.0987500e+02   8.8904000e+01   2.2700000e+00
   2.1028152e+03   1.2401300e+02   3.0918300e+02   9.4381000e+01   2.2700000e+00
   2.1029675e+03   1.2380000e+02   3.0925500e+02   1.0481400e+02   2.2700000e+00
   2.1031201e+03   1.2362900e+02   3.1043600e+02   1.1103700e+02   2.2700000e+00
   2.1032725e+03   1.2361100e+02   3.1209100e+02   1.0804000e+02   2.2680000e+00
   2.1034248e+03   1.2404700e+02   3.1411800e+02   1.0573700e+02   2.2620000e+00
   2.1035771e+03   1.2491300e+02   3.1916400e+02   1.0825700e+02   2.2550000e+00
   2.1037297e+03   1.2625500e+02   3.2583300e+02   1.1622300e+02   2.2370000e+00
   2.1038821e+03   1.2758200e+02   3.3113600e+02   1.2427800e+02   2.1970000e+00
   2.1040344e+03   1.2890700e+02   3.3125200e+02   1.2341500e+02   2.1740000e+00
   2.1041868e+03   1.3061900e+02   3.3238400e+02   1.1231900e+02   2.2020000e+00
   2.1043391e+03   1.3213300e+02   3.3859600e+02   9.9757000e+01   2.2470000e+00
   2.1044917e+03   1.3326800e+02   3.4956800e+02   9.3512000e+01   2.2670000e+00
   2.1046440e+03   1.3413400e+02   3.5515300e+02   9.0931000e+01   2.2690000e+00
   2.1047964e+03   1.3379800e+02   3.5457700e+02   9.1473000e+01   2.2650000e+00
   2.1049487e+03   1.3172600e+02   3.5039000e+02   9.7427000e+01   2.2560000e+00
   2.1051013e+03   1.2842000e+02   3.4588800e+02   1.0431600e+02   2.2520000e+00
   2.1052537e+03   1.2572900e+02   3.4016100e+02   1.0542100e+02   2.2570000e+00
   2.1054060e+03   1.2449500e+02   3.3437300e+02   1.0262800e+02   2.2640000e+00
   2.1055583e+03   1.2457700e+02   3.2902300e+02   1.0245100e+02   2.2620000e+00
   2.1057109e+03   1.2538300e+02   3.2986800e+02   1.0546700e+02   2.2540000e+00
   2.1058633e+03   1.2662900e+02   3.3143800e+02   1.1006200e+02   2.2460000e+00
   2.1060156e+03   1.2735900e+02   3.3195000e+02   1.1476500e+02   2.2370000e+00
   2.1061680e+03   1.2722700e+02   3.3036100e+02   1.1643200e+02   2.2310000e+00
   2.1063203e+03   1.2617000e+02   3.2821400e+02   1.1397300e+02   2.2350000e+00
   2.1064729e+03   1.2538800e+02   3.2740600e+02   1.0775900e+02   2.2430000e+00
   2.1066252e+03   1.2546300e+02   3.2868200e+02   9.7900000e+01   2.2440000e+00
   2.1067776e+03   1.2650200e+02   3.3195300e+02   8.7481000e+01   2.2320000e+00
   2.1069299e+03   1.2751100e+02   3.3419300e+02   8.2025000e+01   2.2190000e+00
   2.1070825e+03   1.2811800e+02   3.3498200e+02   8.2826000e+01   2.2240000e+00
   2.1072349e+03   1.2832400e+02   3.3756100e+02   8.5638000e+01   2.2440000e+00
   2.1073872e+03   1.2837400e+02   3.4259800e+02   9.2073000e+01   2.2550000e+00
   2.1075396e+03   1.2841400e+02   3.4598000e+02   1.0200600e+02   2.2410000e+00
   2.1076921e+03   1.2852300e+02   3.4957200e+02   1.0548100e+02   2.2070000e+00
   2.1078445e+03   1.2887700e+02   3.4606000e+02   1.0225400e+02   2.1900000e+00
   2.1079968e+03   1.2947100e+02   3.4386100e+02   9.8921000e+01   2.2200000e+00
   2.1081492e+03   1.3056200e+02   3.4608600e+02   9.7793000e+01   2.2640000e+00
   2.1083015e+03   1.3145700e+02   3.5324600e+02   1.0388800e+02   2.2780000e+00
   2.1084541e+03   1.3192000e+02   3.6402700e+02   1.1370700e+02   2.2680000e+00
   2.1086064e+03   1.3209000e+02   3.6273400e+02   1.1499600e+02   2.2560000e+00
   2.1087588e+03   1.3184000e+02   3.5980300e+02   1.0813200e+02   2.2530000e+00
   2.1089111e+03   1.3117900e+02   3.5438300e+02   1.0155400e+02   2.2600000e+00
   2.1090637e+03   1.3018700e+02   3.5311500e+02   1.0037500e+02   2.2710000e+00
   2.1092161e+03   1.2983200e+02   3.5306800e+02   1.0037400e+02   2.2760000e+00
   2.1093684e+03   1.3050700e+02   3.5565400e+02   9.9827000e+01   2.2730000e+00
   2.1095208e+03   1.3134300e+02   3.5970100e+02   1.0093100e+02   2.2710000e+00
   2.1096733e+03   1.3187100e+02   3.6335000e+02   9.7709000e+01   2.2840000e+00
   2.1098257e+03   1.3211000e+02   3.6579400e+02   8.9052000e+01   2.3060000e+00
   2.1099780e+03   1.3225000e+02   3.6632300e+02   8.5799000e+01   2.3100000e+00
   2.1101304e+03   1.3231700e+02   3.6522700e+02   9.2619000e+01   2.2930000e+00
   2.1102827e+03   1.3207400e+02   3.6462000e+02   9.6457000e+01   2.2800000e+00
   2.1104353e+03   1.3162600e+02   3.6381100e+02   9.5040000e+01   2.2800000e+00
   2.1105876e+03   1.3071700e+02   3.6137400e+02   9.2652000e+01   2.2820000e+00
   2.1107400e+03   1.3018000e+02   3.6042500e+02   8.8649000e+01   2.2810000e+00
   2.1108923e+03   1.2943400e+02   3.5597200e+02   8.6568000e+01   2.2750000e+00
   2.1110449e+03   1.2880300e+02   3.5295100e+02   8.6870000e+01   2.2680000e+00
   2.1111973e+03   1.2846900e+02   3.4857400e+02   8.5858000e+01   2.2660000e+00
   2.1113496e+03   1.2843200e+02   3.4631900e+02   8.4586000e+01   2.2660000e+00
   2.1115020e+03   1.2852500e+02   3.4526200e+02   8.6855000e+01   2.2590000e+00
   2.1116545e+03   1.2858300e+02   3.4489300e+02   8.9541000e+01   2.2520000e+00
   2.1118069e+03   1.2860800e+02   3.4125400e+02   8.9785000e+01   2.2550000e+00
   2.1119592e+03   1.2860000e+02   3.3702600e+02   8.8507000e+01   2.2640000e+00
   2.1121116e+03   1.2856100e+02   3.3564400e+02   8.6779000e+01   2.2730000e+00
   2.1122639e+03   1.2850200e+02   3.4123000e+02   8.7427000e+01   2.2810000e+00
   2.1124165e+03   1.2847600e+02   3.4866100e+02   9.1063000e+01   2.2860000e+00
   2.1125688e+03   1.2852200e+02   3.5199300e+02   9.5644000e+01   2.2850000e+00
   2.1127212e+03   1.2863100e+02   3.5342900e+02   1.0155800e+02   2.2870000e+00
   2.1128735e+03   1.2872900e+02   3.5284700e+02   1.0535600e+02   2.2890000e+00
   2.1130261e+03   1.2896000e+02   3.5285200e+02   1.0457800e+02   2.2830000e+00
   2.1131785e+03   1.2924000e+02   3.5109800e+02   1.0359200e+02   2.2800000e+00
   2.1133308e+03   1.2971400e+02   3.4764300e+02   1.0108400e+02   2.2880000e+00
   2.1134832e+03   1.2948900e+02   3.4251600e+02   9.8652000e+01   2.2980000e+00
   2.1136357e+03   1.2902900e+02   3.3933000e+02   9.8189000e+01   2.2990000e+00
   2.1137881e+03   1.2866100e+02   3.3695200e+02   9.5888000e+01   2.2960000e+00
   2.1139404e+03   1.2849500e+02   3.3869800e+02   9.4123000e+01   2.2990000e+00
   2.1140928e+03   1.2839700e+02   3.4073600e+02   9.1449000e+01   2.3030000e+00
   2.1142451e+03   1.2800900e+02   3.4147200e+02   8.7303000e+01   2.2950000e+00
   2.1143977e+03   1.2731200e+02   3.3963100e+02   8.5990000e+01   2.2780000e+00
   2.1145500e+03   1.2614700e+02   3.3685800e+02   8.5486000e+01   2.2720000e+00
   2.1147024e+03   1.2525600e+02   3.3340600e+02   8.4232000e+01   2.2760000e+00
   2.1148547e+03   1.2485900e+02   3.3000400e+02   8.3100000e+01   2.2820000e+00
   2.1150073e+03   1.2479800e+02   3.2862500e+02   8.2917000e+01   2.2820000e+00
