~Version Information Section
VERS. 2.0 : CWLS Log ASCII Standard - VERSION 2.0
WRAP. NO  : One Line per depth Step
~Well Information Section
#MNEM.UNIT                     Data                         Information
#----------   ------------------------------------------   ----------------
STRT.M                             1993.0000 : Start Depth
STOP.M                            2191.0000 : Stop Depth
NULL.        -999.25                        : Null Value
COMP.UPDATED NORSKHYDR                      : Company Name
WELL.        WELL-4                        : Well
FLD .        GLITNE                         : Field
LOC .        META                           : Location
PROV.                                       : Province
CNTY.                                       : County
STAT.        META                           : State/Province
CTRY.        NORWAY                       : Nation
SRVC.        30                             : Logging Company Code
DATE.        10-20-XXXX                    : Run Date
UWI .        WELL0004                       : Unique Well Identifier
API .                                       : API Number
~Parameter Information Block
#MNEM.UNIT       Value                            Description
#---------       ---------                        -------------
~Curve Information Section
#MNEM.UNIT    API CODE                      : Curve description
#---.-----    --------                      : -----------------
DEPT .m                                      : 
Vp   .km/s                                   : Vp(in Km/s)
RHOB .G/C3                                   : Bulk Density
GR   .GAPI                                   : Gamma Ray
~Ascii
# ...
    2136.39209        2.22606        2.26970      112.00740
    2136.54443        2.20832        2.24950      106.45310
    2136.69678        2.20512        2.24790      107.42700
    2136.84912        2.19086        2.24600      109.27250
    2137.00171        2.23095        2.26340       95.56250
    2137.15405        2.32275        2.27090       93.30150
    2137.30640        2.48161        2.28220       93.07550
    2137.45874        2.51229        2.28130       97.08010
    2137.61108        2.47757        2.29190      103.66740
    2137.76367        2.31922        2.28810      110.37650
    2137.91602        2.23750        2.30250      111.77240
    2138.06836        2.22443        2.31850      118.77600
    2138.22070        2.22768        2.32020      108.05210
    2138.37329        2.23914        2.28970      107.59040
    2138.52563        2.24739        2.25430      110.11720
    2138.67798        2.18145        2.24450      106.40430
    2138.83032        2.16595        2.25500      109.32240
    2138.98291        2.49583        2.25970      101.24020
    2139.13525        2.50609        2.24600       98.52940
    2139.28760        2.54586        2.24780       96.85650
    2139.43994        2.67547        2.26000       82.27800
    2139.59229        2.52896        2.28370       82.21740
    2139.74487        2.51022        2.30260       99.45040
    2139.89722        2.50198        2.29050      101.09070
    2140.04956        2.33700        2.26070       97.61830
    2140.20190        2.32098        2.23300       99.91320
    2140.35449        2.28788        2.23750      107.98580
    2140.50684        2.24739        2.21590      110.21200
    2140.65918        2.18145        2.17730      100.98130
    2140.81152        2.11485        2.15730      101.03350
    2140.96411        2.39202        2.18510      104.55530
    2141.11646        2.38640        2.23330      102.72670
    2141.26880        2.32098        2.24950      100.00710
    2141.42114        2.32098        2.25070      101.37250
    2141.57349        2.31922        2.23410      106.67180
    2141.72607        2.30868        2.23720      108.40310
    2141.87842        2.32985        2.23740      109.52100
    2142.03076        2.31569        2.24040      102.89990
    2142.18311        2.31569        2.24440      104.20180
    2142.33569        2.31922        2.23590       94.07910
    2142.48804        2.37710        2.23000       89.62790
    2142.64038        2.64529        2.23570       77.26130
    2142.79272        2.75778        2.25070       74.99670
    2142.94531        2.76529        2.25980       87.82840
    2143.09766        2.70876        2.31320       91.81340
    2143.25000        2.38640        2.36050       94.19660
    2143.40234        2.40713        2.40260       91.69360
    2143.55469        2.41667        2.34990       92.37050
    2143.70728        2.44184        2.30580       93.00340
    2143.85962        2.44576        2.28480       94.56640
    2144.01196        2.36786        2.27140       92.32730
    2144.16431        2.37155        2.23650       90.09900
    2144.31689        2.37155        2.22930       96.77870
    2144.46924        2.37155        2.23740      100.71870
    2144.62158        2.34599        2.25640       99.71120
    2144.77393        2.36419        2.24860      102.65150
    2144.92651        2.36602        2.22950      102.59790
    2145.07886        2.36786        2.22110      100.94410
    2145.23120        2.36786        2.21350       96.97360
    2145.38354        2.37339        2.20550       95.53100
    2145.53589        2.36786        2.19800       95.91590
    2145.68848        2.37710        2.20040       99.73510
    2145.84082        2.37710        2.21600       96.76510
    2145.99316        2.36786        2.23710       98.92250
    2146.14551        2.36053        2.26530       93.82800
    2146.29810        2.34780        2.25660       97.65670
    2146.45044        2.32452        2.21730       95.83900
    2146.60278        2.32098        2.19990      100.98230
    2146.75513        2.33342        2.21700      104.61350
    2146.90771        2.32275        2.23110      104.31940
    2147.06006        2.33879        2.22000      105.55910
    2147.21240        2.34239        2.22050      104.76520
    2147.36475        2.32275        2.21880      103.58440
    2147.51709        2.34419        2.22780      100.23390
    2147.66968        2.36970        2.24250       97.85260
    2147.82202        2.41285        2.26120      101.07400
    2147.97437        2.40144        2.26260       94.83700
    2148.12671        2.34419        2.22370       97.18970
    2148.27930        2.27762        2.19780       99.99450
    2148.43164        2.24409        2.19920       87.55800
    2148.58398        2.28616        2.21160       80.70700
    2148.73633        2.33700        2.23030       71.47680
    2148.88892        2.47355        2.22800       81.42580
    2149.04126        2.48161        2.24340       83.02310
    2149.19360        2.47757        2.26190       92.91150
    2149.34595        2.41285        2.27190       91.55980
    2149.49829        2.79572        2.25770       88.14100
    2149.65088        2.46754        2.23010       82.37310
    2149.80322        2.44380        2.20840       79.21370
    2149.95557        2.53317        2.20120       77.33880
    2150.10791        2.64071        2.21560       80.52070
    2150.26050        2.76529        2.21810       76.70320
    2150.41284        2.77789        2.19790       76.25570
    2150.56519        2.85330        2.18280       78.56400
    2150.71753        2.81899        2.18710       94.42000
    2150.87012        3.40089        2.18750       93.68090
    2151.02246        3.35595        2.16730       93.80930
    2151.17480        3.15451        2.13680       82.98420
    2151.32715        3.55561        2.14490       80.27000
    2151.47949        3.73421        2.17120       77.07130
    2151.63208        3.25559        2.20490       74.49570
    2151.78442        3.25559        2.20930       76.49510
    2151.93677        3.01711        2.21320       66.36210
    2152.08911        2.94995        2.22460       63.57000
    2152.24170        2.92729        2.25340       76.72360
    2152.39404        2.97587        2.26740       78.43980
    2152.54639        3.02610        2.23590       77.17890
    2152.69873        3.02010        2.19620       83.67160
    2152.85132        2.92729        2.17830       76.57140
    2153.00366        2.90497        2.19800       75.98740
    2153.15601        2.84265        2.21040       74.60360
    2153.30835        2.74783        2.21250       77.18050
    2153.46069        2.80602        2.20980       77.32660
    2153.61328        2.82684        2.22640       77.86480
    2153.76562        2.85330        2.24970       76.46980
    2153.91797        2.93858        2.25720       76.83150
    2154.07031        2.91609        2.24640       77.74410
    2154.22290        2.83472        2.22220       80.16710
    2154.37524        2.82684        2.20560       76.43010
    2154.52759        2.80086        2.18880       77.30930
    2154.67993        2.82160        2.18000       86.25230
    2154.83252        2.87483        2.18480       86.23550
    2154.98486        3.02610        2.20340       89.15530
    2155.13721        3.02911        2.21860       93.18930
    2155.28955        3.20425        2.20750       86.46670
    2155.44189        3.04728        2.18980       85.48640
    2155.59448        2.80860        2.18540       77.73510
    2155.74683        2.72816        2.19090       86.70950
    2155.89917        2.58253        2.19370       95.98530
    2156.05151        2.53527        2.18670       78.89410
    2156.20410        2.56514        2.18250       76.02890
    2156.35645        2.57598        2.19930       79.05640
    2156.50879        2.57598        2.23270       92.86150
    2156.66113        2.63159        2.25350       98.72220
