~Version Information Section
VERS. 2.0 : CWLS Log ASCII Standard - VERSION 2.0
WRAP. NO  : One Line per depth Step
~Well Information Section
#MNEM.UNIT                     Data                         Information
#----------   ------------------------------------------   ----------------
STRT.M                             200.0000 : Start Depth
STOP.M                            5021.0000 : Stop Depth
NULL.        -9999.00000                        : Null Value
COMP.UPDATED NORSKHYDR                      : Company Name
WELL.        WELL-3                        : Well
FLD .        GLITNE                          : Field
LOC .        META                           : Location
PROV.                                       : Province
CNTY.                                       : County
STAT.        META                           : State/Province
CTRY.        NORWAY                      : Nation
SRVC.        30                             : Logging Company Code
DATE.        10-20-XXXX                    : Run Date
UWI .        WELL0003                       : Unique Well Identifier
API .                                       : API Number
~Parameter Information Block
#MNEM.UNIT       Value                            Description
#---------       ---------                        -------------
~Curve Information Section
#MNEM.UNIT    API CODE                      : Curve description
#---.-----    --------                      : -----------------
DEPT .m                                      : 
Vp   .km/s                                   : Vp(in Km/s)
RHOB .G/C3                                   : Bulk Density
GR   .GAPI                                   : Gamma Ray
~Ascii
# ...
    1159.96521        1.94140        2.06290       21.04690
    1160.11755        1.93524        2.06450       19.28270
    1160.27002        1.93524        2.07980       14.50000
    1160.42236        1.93677        2.09560       15.71780
    1160.57483        1.95228        2.10440       16.35940
    1160.72717        1.95385        2.09150       18.82810
    1160.87964        1.95228        2.08010       18.82810
    1161.03198        1.93986        2.06140       18.29690
    1161.18445        1.92455        2.06850       17.65630
    1161.33679        1.92455        2.08190       18.20310
    1161.48926        1.93986        2.09710       17.46880
    1161.64160        1.93678        2.08980       21.67190
    1161.79395        1.96645        2.09410       22.29690
    1161.94641        1.98244        2.10790       22.96880
    1162.09875        1.98567        2.10710       22.51600
    1162.25122        1.97441        2.08770       21.89060
    1162.40356        1.95700        2.08500       24.93510
    1162.55603        1.94916        2.08160       22.42190
    1162.70837        1.95385        2.07790       22.45310
    1162.86084        1.94140        2.03750       21.81250
    1163.01318        1.94140        2.02060       22.96880
    1163.16565        1.93678        2.03040       25.31250
    1163.31799        1.92303        2.05720       25.82810
    1163.47046        1.92455        2.04600       24.62500
    1163.62280        1.93217        1.98190       23.42190
    1163.77515        1.93217        1.94810       22.32900
    1163.92761        1.92759        1.97150       20.57810
    1164.07996        1.91248        2.04130       21.90520
    1164.23242        1.90500        2.06370       20.67190
    1164.38477        1.92301        2.07460       20.65630
    1164.53723        1.93986        2.04880       18.20310
    1164.68958        1.94760        2.02760       17.57810
    1164.84204        1.92455        2.02420       20.53130
    1164.99438        1.93524        2.03020       20.50000
    1165.14685        1.95228        2.03790       24.73440
    1165.29919        1.99216        1.99150       25.31250
    1165.45166        1.99869        1.90240       28.37500
    1165.60400        1.95228        1.81590       32.65630
    1165.75635        1.87575        1.77140       37.65220
    1165.90881        1.82106        1.79250       46.31250
    1166.06116        1.79957        1.85700       47.46780
    1166.21362        1.86994        1.93530       50.87500
    1166.36597        1.95221        1.93600       47.59640
    1166.51843        1.99869        1.88410       51.15630
    1166.67078        2.01354        1.84390       52.65620
    1166.82324        1.95385        1.83900       54.06250
    1166.97559        1.88877        1.87320       48.06250
    1167.12805        1.94916        1.92270       48.65630
    1167.28040        2.00857        1.93530       52.09380
    1167.43274        2.11483        1.90150       57.78120
    1167.58521        2.28958        1.88600       57.03120
    1167.73755        2.33783        1.89760       56.46920
    1167.89001        2.21673        1.92920       51.93750
    1168.04236        2.09494        1.92030       52.46830
    1168.19482        1.99869        1.86100       47.50000
    1168.34717        1.92309        1.77490       51.84030
    1168.49963        1.93217        1.71640       50.03130
    1168.65198        2.06819        1.73210       52.00000
    1168.80444        2.08232        1.77960       51.34380
    1168.95679        2.08589        1.85620       50.87500
    1169.10925        2.14459        1.85110       53.93750
    1169.26160        2.03539        1.85390       52.84380
    1169.41394        2.02693        1.87870       54.71880
    1169.56641        2.15597        1.90500       47.96870
    1169.71875        2.03548        1.90760       49.06160
    1169.87122        2.08232        1.88730       50.56250
    1170.02356        2.11480        1.86450       56.46400
    1170.17603        2.04564        1.84980       55.81250
    1170.32837        2.17122        1.86010       56.53070
    1170.48083        2.19281        1.89340       51.31250
    1170.63318        2.12961        1.90910       49.18750
    1170.78564        2.10570        1.90580       41.84370
    1170.93799        2.07347        1.90620       41.75000
    1171.09045        2.01354        1.89220       40.43750
    1171.24280        2.05425        1.88300       42.93750
    1171.39514        2.08767        1.85290       46.62500
    1171.54761        2.15979        1.83840       50.78120
    1171.69995        2.20866        1.83470       53.18560
    1171.85242        2.17714        1.84880       54.87500
    1172.00476        2.10940        1.84680       52.37700
    1172.15723        2.07347        1.83210       51.93750
    1172.30957        2.15590        1.83590       48.50270
    1172.46204        2.11117        1.87570       49.84370
    1172.61438        2.20670        1.93750       53.31250
    1172.76685        2.18495        1.97320       58.71870
    1172.91919        2.15597        1.97100       56.84370
    1173.07166        2.18104        1.95520       49.00000
    1173.22400        2.08589        1.94320       43.50000
    1173.37634        2.15979        1.93010       41.71870
    1173.52881        2.17520        1.92260       41.09370
    1173.68115        2.17714        1.92070       40.46920
    1173.83362        2.21270        1.94400       44.59380
    1173.98596        2.14464        1.91400       46.77950
    1174.13843        2.06644        1.88140       47.75000
    1174.29077        2.01358        1.86790       48.28080
    1174.44324        1.96171        1.88270       52.43750
    1174.59558        1.96645        1.90230       55.18750
    1174.74805        1.98729        1.93320       55.68750
    1174.90039        1.99542        1.97860       53.75000
    1175.05286        2.04564        2.02440       46.18750
    1175.20520        2.04050        2.06020       38.46880
    1175.35754        2.04908        2.07810       30.90620
    1175.51001        2.04564        2.07940       26.12500
    1175.66235        2.01856        2.08550       23.11180
    1175.81482        2.01188        2.07720       20.82810
    1175.96716        1.99543        2.06490       21.56190
    1176.11963        1.98729        2.05110       19.82810
    1176.27197        1.98244        2.06520       17.95460
    1176.42444        1.98729        2.08400       16.62500
    1176.57678        2.00033        2.09290       18.87500
    1176.72925        2.00857        2.09300       20.65630
    1176.88159        2.01854        2.09630       22.46870
    1177.03406        2.02525        2.11260       18.96880
    1177.18640        2.01687        2.10860       20.09380
    1177.33875        2.01687        2.09720       21.82810
    1177.49121        2.01354        2.09120       26.09380
    1177.64355        2.01354        2.08960       22.62780
    1177.79602        2.01854        2.09310       22.15620
    1177.94836        2.01687        2.09940       18.56540
    1178.10083        2.01354        2.10730       17.92190
    1178.25317        2.01188        2.10830       14.86180
    1178.40564        1.99869        2.10730       15.96090
    1178.55798        2.00526        2.09900       19.54690
    1178.71045        2.01188        2.09310       18.95310
    1178.86279        2.01188        2.09280       16.57810
    1179.01526        2.00526        2.09850       15.42190
    1179.16760        2.00857        2.09220       18.35940
    1179.31995        2.00857        2.08500       22.59040
    1179.47241        2.01188        2.08430       23.15630
    1179.62476        1.99870        2.08990       19.67470
    1179.77722        1.96645        2.09420       16.65630
    1179.92957        1.99866        2.08050       21.38680
    1180.08203        2.05253        2.00560       27.21880
    1180.23438        2.11661        1.86680       31.94930
