~Version Information Section
VERS. 2.0 : CWLS Log ASCII Standard - VERSION 2.0
WRAP. NO  : One Line per depth Step
~Well Information Section
#MNEM.UNIT                     Data                         Information
#----------   ------------------------------------------   ----------------
STRT.M                             200.0000 : Start Depth
STOP.M                            5021.0000 : Stop Depth
NULL.        -9999.00000                        : Null Value
COMP.UPDATED NORSKHYDR                      : Company Name
WELL.        WELL-3                        : Well
FLD .        GLITNE                          : Field
LOC .        META                           : Location
PROV.                                       : Province
CNTY.                                       : County
STAT.        META                           : State/Province
CTRY.        NORWAY                      : Nation
SRVC.        30                             : Logging Company Code
DATE.        10-20-XXXX                    : Run Date
UWI .        WELL0003                       : Unique Well Identifier
API .                                       : API Number
~Parameter Information Block
#MNEM.UNIT       Value                            Description
#---------       ---------                        -------------
~Curve Information Section
#MNEM.UNIT    API CODE                      : Curve description
#---.-----    --------                      : -----------------
DEPT .m                                      : 
Vp   .km/s                                   : Vp(in Km/s)
RHOB .G/C3                                   : Bulk Density
GR   .GAPI                                   : Gamma Ray
~Ascii
# ...
    3406.34131        3.75911        2.61920       32.47970
    3406.49365        3.66412        2.60870       33.23050
    3406.64600        3.59942        2.60120       34.77410
    3406.79834        3.50729        2.59760       34.45400
    3406.95068        3.46633        2.59600       33.05580
    3407.10327        3.44812        2.58580       31.66320
    3407.25562        3.51920        2.57510       30.70300
    3407.40796        3.56860        2.55990       31.87110
    3407.56030        3.62307        2.55510       33.20980
    3407.71289        3.63026        2.55740       33.36340
    3407.86523        3.61700        2.56380       32.98350
    3408.01758        3.61700        2.56740       32.02300
    3408.16992        3.61700        2.57420       30.76510
    3408.32251        3.60854        2.57900       30.29520
    3408.47485        3.59173        2.57770       30.49360
    3408.62720        3.59379        2.56890       32.47610
    3408.77954        3.61913        2.56630       33.99660
    3408.93188        3.63450        2.57060       33.81970
    3409.08447        3.65359        2.57310       33.01380
    3409.23682        3.60367        2.57190       32.05670
    3409.38916        3.58338        2.57400       31.28520
    3409.54150        3.58338        2.57750       30.66370
    3409.69409        3.59650        2.57820       31.68600
    3409.84644        3.60676        2.57370       33.33970
    3409.99878        3.59346        2.56620       35.00180
    3410.15112        3.57845        2.55520       35.30120
    3410.30371        3.51325        2.54640       34.98270
    3410.45605        3.50202        2.53550       33.98970
    3410.60840        3.50686        2.52910       33.59060
    3410.76074        3.53826        2.52780       32.89420
    3410.91309        3.60139        2.53650       31.33660
    3411.06567        3.64989        2.54950       30.15040
    3411.21802        3.68616        2.55850       30.54660
    3411.37036        3.68616        2.55680       31.29980
    3411.52271        3.63194        2.54490       34.11070
    3411.67529        3.59129        2.53900       34.16440
    3411.82764        3.58338        2.54640       33.03090
    3411.97998        3.61231        2.56040       28.99550
    3412.13232        3.66090        2.57460       27.98670
    3412.28491        3.69185        2.58270       26.70390
    3412.43726        3.68616        2.58450       27.27310
    3412.58960        3.68616        2.58140       27.49860
    3412.74194        3.70293        2.57700       26.80310
    3412.89429        3.75549        2.57680       26.99370
    3413.04688        3.77563        2.57670       27.84370
    3413.19922        3.79500        2.57210       28.04320
    3413.35156        3.77780        2.56710       27.39600
    3413.50391        3.77641        2.56500       26.79980
    3413.65649        3.78569        2.56270       27.05060
    3413.80884        3.78569        2.55880       27.09730
    3413.96118        3.78569        2.55420       26.59100
    3414.11353        3.78569        2.55000       25.91040
    3414.26611        3.77721        2.54950       26.52620
    3414.41846        3.75876        2.55180       27.27220
    3414.57080        3.74048        2.55170       27.09510
    3414.72314        3.72237        2.54720       26.21930
    3414.87549        3.74360        2.54230       25.48270
    3415.02808        3.77606        2.54850       25.06430
    3415.18042        3.81349        2.56570       24.22880
    3415.33276        3.88770        2.58360       22.34540
    3415.48511        3.94044        2.59100       21.11970
    3415.63770        3.92989        2.59010       22.26060
    3415.79004        3.87980        2.58190       25.78370
    3415.94238        3.78842        2.57110       28.82960
    3416.09473        3.70491        2.56160       31.31110
    3416.24731        3.63390        2.55320       34.34060
    3416.39966        3.59963        2.53340       36.29370
    3416.55200        3.52162        2.50370       37.72480
    3416.70435        3.35410        2.48830       38.12650
    3416.85669        3.24692        2.50500       38.62790
    3417.00928        3.21042        2.54240       39.02930
    3417.16162        3.22494        2.57210       39.49390
    3417.31396        3.35045        2.57430       39.36490
    3417.46631        3.44251        2.57350       36.33280
    3417.61890        3.49868        2.57160       35.04410
    3417.77124        3.48945        2.56150       35.66250
    3417.92358        3.38198        2.51250       38.20540
    3418.07593        3.30354        2.46710       39.81490
    3418.22852        3.19681        2.39810       39.55130
    3418.38086        3.17230        2.36060       39.51850
    3418.53320        3.16937        2.35900       39.86210
    3418.68555        3.19061        2.39440       44.71650
    3418.83789        3.26824        2.41070       47.99040
    3418.99048        3.27012        2.42920       47.01830
    3419.14282        3.23320        2.44350       42.36460
    3419.29517        3.32639        2.44520       36.30100
    3419.44751        3.42166        2.43460       29.86180
    3419.60010        3.60531        2.45970       22.76250
    3419.75244        3.99129        2.52610       21.56620
    3419.90479        4.22054        2.59140       23.46160
    3420.05713        4.27863        2.61050       26.14890
    3420.20972        4.14069        2.60380       26.77670
    3420.36206        4.07245        2.58910       26.60520
    3420.51440        4.05438        2.58870       25.83100
    3420.66675        4.01864        2.60060       24.40480
    3420.81909        3.98226        2.62170       23.42990
    3420.97168        3.93652        2.63940       22.78810
    3421.12402        3.93541        2.64120       22.19070
    3421.27637        3.86407        2.63630       23.74980
    3421.42871        3.84400        2.63530       25.56910
    3421.58130        3.80949        2.64440       27.29420
    3421.73364        3.77379        2.65880       29.12780
    3421.88599        3.74511        2.66340       30.89380
    3422.03833        3.70427        2.65540       32.51320
    3422.19092        3.64870        2.64270       31.74340
    3422.34326        3.63404        2.63870       31.64920
    3422.49561        3.65476        2.64250       30.62700
    3422.64795        3.69460        2.65190       29.87570
    3422.80029        3.72163        2.65760       29.08850
    3422.95288        3.74875        2.65620       26.75700
    3423.10522        3.77648        2.64460       25.72140
    3423.25757        3.82331        2.63270       26.03450
    3423.40991        3.86193        2.62270       25.89420
    3423.56250        3.88121        2.61420       24.97770
    3423.71484        3.89206        2.61090       23.56890
    3423.86719        3.94210        2.61180       22.51240
    3424.01953        4.01498        2.61750       22.49080
    3424.17212        4.04046        2.62390       23.75120
    3424.32446        3.96780        2.62680       26.96920
    3424.47681        3.84554        2.62400       28.75260
    3424.62915        3.81901        2.62170       30.25140
    3424.78149        3.88190        2.62500       29.45780
    3424.93408        4.06282        2.63270       27.50720
    3425.08643        4.21436        2.64670       24.88520
    3425.23877        4.33958        2.65650       23.57510
    3425.39111        4.33654        2.67060       23.18940
    3425.54370        4.29422        2.67050       23.46950
    3425.69604        4.24967        2.65240       25.26880
    3425.84839        4.08038        2.60630       28.40960
    3426.00073        3.86712        2.57930       30.18260
    3426.15332        3.74264        2.57080       31.18130
    3426.30566        3.70304        2.58410       29.70200
    3426.45801        3.75507        2.62220       28.92920
    3426.61035        3.80728        2.63660       29.07530
