~Version Information Section
VERS. 2.0 : CWLS Log ASCII Standard - VERSION 2.0
WRAP. NO  : One Line per depth Step
~Well Information Section
#MNEM.UNIT                     Data                         Information
#----------   ------------------------------------------   ----------------
STRT.M                             1360.0000 : Start Depth
STOP.M                            2763.0000 : Stop Depth
NULL.        -999.25                        : Null Value
COMP.UPDATED NORSKHYDR                      : Company Name
WELL.        WELL-1                        : Well
FLD .        GLITNE                          : Field
LOC .        META                           : Location
PROV.                                       : Province
CNTY.                                       : County
STAT.        META                           : State/Province
CTRY.        NORWAY                         : Nation
SRVC.        30                             : Logging Company Code
DATE.        11-20-XXXX                    : Run Date
UWI .        WELL0001                       : Unique Well Identifier
API .                                       : API Number
~Parameter Information Block
#MNEM.UNIT       Value                            Description
#---------       ---------                        -------------
~Curve Information Section
#MNEM.UNIT    API CODE                      : Curve description
#---.-----    --------                      : -----------------
DEPT .M                                      : 
Vp   .KM/S                                   : Vp
RHOB .G/C3                                   : Bulk Density
GR   .GAPI                                   : Gamma Ray
~Ascii
# ...
    1912.87500        2.21279        2.25090       35.85420
    1913.00000        2.21375        2.23150       38.78190
    1913.12500        2.21196        2.19920       41.19290
    1913.25000        2.21742        2.19760       41.24740
    1913.37500        2.23408        2.19990       42.75960
    1913.50000        2.23978        2.20310       42.81950
    1913.62500        2.23020        2.20450       44.13210
    1913.75000        2.22616        2.20290       42.85300
    1913.87500        2.23188        2.20130       38.91440
    1914.00000        2.23581        2.20120       36.09030
    1914.12500        2.24764        2.20350       36.03900
    1914.25000        2.25523        2.20430       38.57470
    1914.37500        2.27188        2.20540       40.13890
    1914.50000        2.27740        2.21440       40.02700
    1914.62500        2.26328        2.23680       38.68000
    1914.75000        2.27019        2.25520       37.16780
    1914.87500        2.28225        2.27380       38.54460
    1915.00000        2.27345        2.28380       37.92270
    1915.12500        2.27356        2.27940       37.23050
    1915.25000        2.28866        2.26980       36.44100
    1915.37500        2.30354        2.23530       34.65810
    1915.50000        2.29111        2.21450       36.65740
    1915.62500        2.28188        2.20190       37.08580
    1915.75000        2.28003        2.19780       38.31690
    1915.87500        2.27339        2.20540       39.41330
    1916.00000        2.25912        2.20860       39.82260
    1916.12500        2.25569        2.21600       40.87350
    1916.25000        2.25569        2.21450       44.25340
    1916.37500        2.24771        2.21370       43.90140
    1916.50000        2.25851        2.21910       42.04670
    1916.62500        2.27973        2.22070       39.66640
    1916.75000        2.28786        2.23670       37.43770
    1916.87500        2.29139        2.23270       38.71930
    1917.00000        2.30134        2.22760       40.13960
    1917.12500        2.29379        2.22980       40.20830
    1917.25000        2.27150        2.23960       39.84670
    1917.37500        2.25698        2.25090       40.04530
    1917.50000        2.28702        2.24620       41.17500
    1917.62500        2.27129        2.22550       39.48330
    1917.75000        2.28091        2.20570       39.90060
    1917.87500        2.28846        2.19610       38.97140
    1918.00000        2.27602        2.19100       37.39260
    1918.12500        2.24733        2.17330       36.82440
    1918.25000        2.26100        2.16090       35.64540
    1918.37500        2.26357        2.15530       37.56420
    1918.50000        2.24584        2.16310       37.84150
    1918.62500        2.23462        2.18550       38.43820
    1918.75000        2.23798        2.19830       39.28250
    1918.87500        2.24217        2.20820       37.97050
    1919.00000        2.26092        2.20750       39.76470
    1919.12500        2.26119        2.20350       37.41180
    1919.25000        2.26622        2.19940       36.04570
    1919.37500        2.27733        2.19310       35.11550
    1919.50000        2.28619        2.18830       33.64950
    1919.62500        2.27918        2.18880       34.67470
    1919.75000        2.27554        2.19240       35.06220
    1919.87500        2.27591        2.19850       37.44450
    1920.00000        2.27314        2.20700       40.27990
    1920.12500        2.26002        2.21830       42.40060
    1920.25000        2.23555        2.22330       43.33140
    1920.37500        2.24230        2.22340       43.17760
    1920.50000        2.23887        2.21520       41.30280
    1920.62500        2.23814        2.20030       39.82360
    1920.75000        2.23769        2.18530       38.88400
    1920.87500        2.23878        2.18210       38.20290
    1921.00000        2.25748        2.18720       37.66460
    1921.12500        2.20342        2.19360       38.05990
    1921.25000        2.28488        2.19590       36.64620
    1921.37500        2.34664        2.19270       35.90390
    1921.50000        2.35582        2.18950       35.91790
    1921.62500        2.36982        2.19890       35.48980
    1921.75000        2.32898        2.22810       35.97680
    1921.87500        2.27861        2.25990       36.48660
    1922.00000        2.26890        2.28140       37.85650
    1922.12500        2.23994        2.28520       38.95900
    1922.25000        2.18929        2.26760       38.89040
    1922.37500        2.21648        2.26560       37.72450
    1922.50000        2.19520        2.25490       35.54580
    1922.62500        2.23256        2.22520       36.31250
    1922.75000        2.25177        2.18360       36.98340
    1922.87500        2.23958        2.15820       37.64420
    1923.00000        2.21920        2.15660       39.25670
    1923.12500        2.20767        2.18030       39.53870
    1923.25000        2.21120        2.19060       41.41630
    1923.37500        2.21730        2.18810       41.28170
    1923.50000        2.23270        2.18840       39.89950
    1923.62500        2.26079        2.18040       38.07650
    1923.75000        2.29659        2.18990       36.09060
    1923.87500        2.31087        2.19110       37.62850
    1924.00000        2.27860        2.19400       37.63320
    1924.12500        2.23745        2.20080       38.74590
    1924.25000        2.19713        2.19890       38.49860
    1924.37500        2.16362        2.18920       35.44910
    1924.50000        2.16362        2.17180       37.44840
    1924.62500        2.21999        2.14680       38.21500
    1924.75000        2.26919        2.13130       40.89170
    1924.87500        2.28906        2.13520       42.81350
    1925.00000        2.28278        2.12560       43.42470
    1925.12500        2.27348        2.12050       44.32680
    1925.25000        2.25623        2.13540       43.12220
    1925.37500        2.24927        2.15460       41.89580
    1925.50000        2.24312        2.16920       40.47260
    1925.62500        2.22748        2.17940       39.69850
    1925.75000        2.20842        2.17460       40.38530
    1925.87500        2.22828        2.16840       42.58960
    1926.00000        2.21760        2.17100       41.41350
    1926.12500        2.22217        2.17970       41.70930
    1926.25000        2.23307        2.18900       41.22230
    1926.37500        2.24170        2.19700       39.96560
    1926.50000        2.24308        2.18480       39.64390
    1926.62500        2.24139        2.17200       40.18220
    1926.75000        2.24413        2.16520       40.31720
    1926.87500        2.23426        2.16960       40.64580
    1927.00000        2.25049        2.18850       40.08010
    1927.12500        2.30245        2.22060       38.36090
    1927.25000        2.32223        2.23020       37.28440
    1927.37500        2.30612        2.22510       36.74460
    1927.50000        2.33063        2.21110       35.84750
    1927.62500        2.38687        2.20140       34.64740
    1927.75000        2.43056        2.22060       33.51510
    1927.87500        2.41689        2.26860       33.17410
    1928.00000        2.41885        2.30420       35.40410
    1928.12500        2.36530        2.32280       37.91100
    1928.25000        2.28299        2.33630       40.90270
    1928.37500        2.24596        2.35800       42.51820
    1928.50000        2.27972        2.36280       42.39370
    1928.62500        2.34471        2.33150       42.50740
    1928.75000        2.34841        2.27670       38.97020
    1928.87500        2.33576        2.23030       38.77660
    1929.00000        2.31618        2.21870       38.47560
    1929.12500        2.27413        2.25130       37.87500
    1929.25000        2.20658        2.30580       38.06020
    1929.37500        2.17909        2.34990       39.31620
    1929.50000        2.18308        2.34560       42.28510
