~Version Information Section
VERS. 2.0 : CWLS Log ASCII Standard - VERSION 2.0
WRAP. NO  : One Line per depth Step
~Well Information Section
#MNEM.UNIT                     Data                         Information
#----------   ------------------------------------------   ----------------
STRT.M                             200.0000 : Start Depth
STOP.M                            5021.0000 : Stop Depth
NULL.        -9999.00000                        : Null Value
COMP.UPDATED NORSKHYDR                      : Company Name
WELL.        WELL-3                        : Well
FLD .        GLITNE                          : Field
LOC .        META                           : Location
PROV.                                       : Province
CNTY.                                       : County
STAT.        META                           : State/Province
CTRY.        NORWAY                      : Nation
SRVC.        30                             : Logging Company Code
DATE.        10-20-XXXX                    : Run Date
UWI .        WELL0003                       : Unique Well Identifier
API .                                       : API Number
~Parameter Information Block
#MNEM.UNIT       Value                            Description
#---------       ---------                        -------------
~Curve Information Section
#MNEM.UNIT    API CODE                      : Curve description
#---.-----    --------                      : -----------------
DEPT .m                                      : 
Vp   .km/s                                   : Vp(in Km/s)
RHOB .G/C3                                   : Bulk Density
GR   .GAPI                                   : Gamma Ray
~Ascii
# ...
    4366.15625        4.45464        2.10390       25.42340
    4366.30859        4.45467        2.11630       24.41670
    4366.46143        4.45471        2.12240       23.65020
    4366.61377        4.45474        2.13290       22.09570
    4366.76611        4.44207        2.11730       19.93480
    4366.91846        4.42733        2.10070       18.19390
    4367.07080        4.42726        2.08890       17.49460
    4367.22314        4.41648        2.10730       16.99640
    4367.37549        4.41056        2.13090       16.60890
    4367.52783        4.40234        2.13270       16.58730
    4367.68018        4.41054        2.10880       16.97820
    4367.83301        4.42529        2.09070       18.08630
    4367.98535        4.42958        2.08290       19.69960
    4368.13770        4.42961        2.09290       20.94290
    4368.29004        4.42965        2.10540       23.29840
    4368.44238        4.43812        2.12030       25.74400
    4368.59473        4.44240        2.11410       26.93800
    4368.74707        4.44244        2.11030       26.87770
    4368.89941        4.44247        2.10950       26.30650
    4369.05176        4.45097        2.12400       26.00290
    4369.20459        4.45531        2.14130       26.01260
    4369.35693        4.45534        2.14170       26.18380
    4369.50928        4.46387        2.12750       27.60920
    4369.66162        4.46825        2.12400       28.79040
    4369.81396        4.46828        2.13720       30.02220
    4369.96631        4.46831        2.17080       30.58990
    4370.11865        4.46834        2.18990       29.65380
    4370.27100        4.46838        2.18240       27.87020
    4370.42383        4.45866        2.13340       25.75120
    4370.57617        4.45625        2.10350       24.78090
    4370.72852        4.47762        2.11400       25.55490
    4370.88086        4.50787        2.14290       26.96360
    4371.03320        4.52399        2.18200       28.84840
    4371.18555        4.52718        2.19470       30.83440
    4371.33789        4.52280        2.21220       32.92690
    4371.49023        4.49027        2.19590       34.13360
    4371.64258        4.47085        2.16300       34.47090
    4371.79541        4.45426        2.15130       34.29540
    4371.94775        4.44443        2.15050       33.57780
    4372.10010        4.45163        2.15390       30.74260
    4372.25244        4.45595        2.15800       27.35850
    4372.40479        4.44564        2.13930       23.37200
    4372.55713        4.43579        2.13820       18.96710
    4372.70947        4.43354        2.10640       16.08190
    4372.86182        4.42745        2.10130       14.57840
    4373.01416        4.42017        2.08370       13.42030
    4373.16699        4.40971        2.08170       12.34190
    4373.31934        4.40140        2.07690       11.80860
    4373.47168        4.40348        2.07580       12.63710
    4373.62402        4.39921        2.07550       13.94480
    4373.77637        4.37722        2.07240       14.59070
    4373.92871        4.38007        2.07680       14.05570
    4374.08105        4.39918        2.07940       13.14880
    4374.23340        4.40577        2.07170       12.35940
    4374.38623        4.40331        2.06510       11.39200
    4374.53857        4.39406        2.06740       10.41870
    4374.69092        4.39898        2.07460       10.17460
    4374.84326        4.40511        2.06810       10.60590
    4374.99561        4.40594        2.06790       11.06290
    4375.14795        4.40596        2.06810       10.53350
    4375.30029        4.40182        2.06330        9.82420
    4375.45264        4.38583        2.06230       11.38780
    4375.60498        4.38826        2.06530       14.54860
    4375.75781        4.39281        2.08740       17.13080
    4375.91016        4.40344        2.09490       19.99340
    4376.06250        4.42563        2.10470       22.19240
    4376.21484        4.43653        2.12390       23.60700
    4376.36719        4.43464        2.14610       24.72220
    4376.51953        4.44793        2.15810       25.49420
    4376.67188        4.45658        2.15860       26.45170
    4376.82422        4.46572        2.14680       26.81460
    4376.97656        4.47016        2.13420       26.36070
    4377.12939        4.47026        2.13860       25.14950
    4377.28174        4.47037        2.13340       24.39960
    4377.43408        4.47047        2.13870       24.03570
    4377.58643        4.46342        2.13710       23.46590
    4377.73877        4.44578        2.13310       22.79130
    4377.89111        4.43038        2.11820       21.36620
    4378.04346        4.42626        2.09770       19.98460
    4378.19580        4.42636        2.09610       19.43470
    4378.34863        4.42647        2.10250       19.60040
    4378.50098        4.45149        2.11640       21.98940
    4378.65332        4.46897        2.12360       25.11870
    4378.80566        4.47144        2.14080       26.74810
    4378.95801        4.47154        2.15870       26.95590
    4379.11035        4.46350        2.14980       26.87370
    4379.26270        4.45484        2.12670       27.09940
    4379.41504        4.44845        2.10210       28.70150
    4379.56738        4.46331        2.10970       30.87590
    4379.72021        4.47206        2.12940       32.99280
    4379.87256        4.48940        2.15270       34.21460
    4380.02490        4.51571        2.16740       34.45850
    4380.17725        4.52507        2.18860       34.31810
    4380.32959        4.56514        2.20090       34.25300
    4380.48193        4.57617        2.20270       36.97490
    4380.63428        4.56709        2.20430       39.49780
    4380.78662        4.55572        2.20460       39.65170
    4380.93896        4.54305        2.20970       39.22660
    4381.09180        4.53910        2.20510       40.07800
    4381.24414        4.54321        2.21350       41.05040
    4381.39648        4.53112        2.20500       39.66250
    4381.54883        4.51628        2.18810       37.65840
    4381.70117        4.51251        2.17790       36.65940
    4381.85352        4.51261        2.17440       35.94030
    4382.00586        4.50402        2.16100       34.42220
    4382.15820        4.49815        2.14460       32.16700
    4382.31104        4.47149        2.13250       31.05180
    4382.46338        4.46879        2.12890       31.54900
    4382.61572        4.47411        2.13030       32.46440
    4382.76807        4.47222        2.14060       33.03550
    4382.92041        4.46474        2.16120       33.37570
    4383.07275        4.45303        2.15970       33.74070
    4383.22510        4.44887        2.14950       34.27300
    4383.37744        4.44897        2.13140       34.00580
    4383.52979        4.44908        2.13260       33.11570
    4383.68262        4.44919        2.14280       32.39070
    4383.83496        4.44929        2.15160       32.19380
    4383.98730        4.44940        2.13400       32.52310
    4384.13965        4.44950        2.11900       32.95810
    4384.29199        4.44961        2.11670       33.29420
    4384.44434        4.44971        2.12650       33.45590
    4384.59668        4.44985        2.14470       33.07760
    4384.74902        4.46861        2.17390       32.75440
    4384.90137        4.48163        2.20040       33.68120
    4385.05420        4.49386        2.19490       36.89250
    4385.20654        4.49057        2.17820       40.95200
    4385.35889        4.49424        2.17170       44.39270
    4385.51123        4.50088        2.17930       45.28830
    4385.66357        4.50224        2.18460       45.11850
    4385.81592        4.50237        2.18840       44.85930
    4385.96826        4.51323        2.18740       45.16550
    4386.12061        4.52547        2.19680       46.81070
    4386.27344        4.52897        2.20400       48.88970
    4386.42578        4.52908        2.20030       48.36900
