~Version Information Section
VERS. 2.0 : CWLS Log ASCII Standard - VERSION 2.0
WRAP. NO  : One Line per depth Step
~Well Information Section
#MNEM.UNIT                     Data                         Information
#----------   ------------------------------------------   ----------------
STRT.M                             1360.0000 : Start Depth
STOP.M                            2763.0000 : Stop Depth
NULL.        -999.25                        : Null Value
COMP.UPDATED NORSKHYDR                      : Company Name
WELL.        WELL-1                        : Well
FLD .        GLITNE                          : Field
LOC .        META                           : Location
PROV.                                       : Province
CNTY.                                       : County
STAT.        META                           : State/Province
CTRY.        NORWAY                         : Nation
SRVC.        30                             : Logging Company Code
DATE.        11-20-XXXX                    : Run Date
UWI .        WELL0001                       : Unique Well Identifier
API .                                       : API Number
~Parameter Information Block
#MNEM.UNIT       Value                            Description
#---------       ---------                        -------------
~Curve Information Section
#MNEM.UNIT    API CODE                      : Curve description
#---.-----    --------                      : -----------------
DEPT .M                                      : 
Vp   .KM/S                                   : Vp
RHOB .G/C3                                   : Bulk Density
GR   .GAPI                                   : Gamma Ray
~Ascii
# ...
    2750.37500        3.92896        2.53050       21.92890
    2750.50000        3.85759        2.52840       22.80030
    2750.62500        3.74262        2.52000       25.04640
    2750.75000        3.70144        2.51020       26.74510
    2750.87500        3.70117        2.50390       27.18520
    2751.00000        3.72549        2.50390       25.77380
    2751.12500        3.83110        2.51030       21.77870
    2751.25000        3.91176        2.52050       20.45860
    2751.37500        3.92973        2.52540       20.17190
    2751.50000        3.90357        2.52650       20.04910
    2751.62500        3.86922        2.53030       20.04280
    2751.75000        3.86355        2.53830       20.25450
    2751.87500        3.90671        2.54490       19.16510
    2752.00000        3.81531        2.55130       21.23440
    2752.12500        3.81003        2.55090       22.95220
    2752.25000        3.83095        2.54370       24.01490
    2752.37500        3.82484        2.53880       24.04200
    2752.50000        3.80266        2.53080       22.12930
    2752.62500        3.85692        2.53190       20.14290
    2752.75000        3.87762        2.53600       19.07050
    2752.87500        3.85454        2.54440       18.83230
    2753.00000        3.83777        2.55660       18.95790
    2753.12500        3.86779        2.55660       19.26940
    2753.25000        3.87031        2.55220       21.24300
    2753.37500        3.82864        2.54960       21.14790
    2753.50000        3.84947        2.55200       21.82830
    2753.62500        3.87480        2.55800       21.58680
    2753.75000        3.88291        2.56160       20.70370
    2753.87500        3.90558        2.54560       21.53710
    2754.00000        3.92362        2.54830       21.08850
    2754.12500        3.98159        2.55280       21.01560
    2754.25000        4.00890        2.55980       19.22520
    2754.37500        3.97951        2.56830       17.39760
    2754.50000        3.92687        2.55710       17.17500
    2754.62500        3.98210        2.54130       16.93150
    2754.75000        3.90395        2.53240       18.00450
    2754.87500        3.89600        2.52930       18.61980
    2755.00000        3.92472        2.53120       19.16900
    2755.12500        3.92360        2.53760       19.95480
    2755.25000        3.83774        2.54400       21.09890
    2755.37500        3.81068        2.53390       22.85460
    2755.50000        3.75303        2.53030       23.30420
    2755.62500        3.67481        2.53060       24.26620
    2755.75000        3.61929        2.53130       25.54890
    2755.87500        3.61755        2.54090       26.26950
    2756.00000        3.66889        2.53940       25.23140
    2756.12500        3.59290        2.52920       26.74980
    2756.25000        3.59364        2.52170       26.77450
    2756.37500        3.62130        2.51480       27.98490
    2756.50000        3.63184        2.50230       28.81480
    2756.62500        3.60347        2.50550       26.41620
    2756.75000        3.59475        2.50300       26.36500
    2756.87500        3.56309        2.50730       26.96500
    2757.00000        3.54766        2.51170       28.21220
    2757.12500        3.52230        2.51250       28.64040
    2757.25000        3.51623        2.51560       27.84840
    2757.37500        3.65141        2.51720       27.39350
    2757.50000        3.72928        2.51760       26.52200
    2757.62500        3.76069        2.52130       25.99740
    2757.75000        3.82607        2.52370       24.15110
    2757.87500        3.90580        2.52060       21.98540
    2758.00000        3.92636        2.52860       21.01730
    2758.12500        3.83519        2.52490       19.44100
    2758.25000        3.92073        2.53130       19.94850
    2758.37500        3.87283        2.53560       20.74770
    2758.50000        3.79257        2.53400       21.96340
    2758.62500        3.76523        2.53670       23.21310
    2758.75000        3.79294        2.52710       23.45260
    2758.87500        3.74045        2.52800       24.18310
    2759.00000        3.68377        2.53030       25.23980
    2759.12500        3.72635        2.53490       25.32400
    2759.25000        3.76565        2.54320       24.77610
    2759.37500        3.70868        2.54480       24.12620
    2759.50000        3.74371        2.54190       22.52430
    2759.62500        3.77485        2.53990       23.00690
    2759.75000        3.82049        2.53660       23.26500
    2759.87500        3.82595        2.53270       23.65350
    2760.00000        3.78282        2.53090       23.98380
    2760.12500        3.73318        2.52610       23.45730
    2760.25000        3.71916        2.52130       21.71430
    2760.37500        3.70919        2.52360       20.70180
    2760.50000        3.70578        2.52600       20.52860
    2760.62500        3.70578        2.52310       22.01020
    2760.75000        3.70666        2.52150       24.76880
    2760.87500        3.71129        2.51370       25.43530
    2761.00000        3.70467        2.51410       25.86450
    2761.12500        3.70296        2.51220       25.15720
    2761.25000        3.70296        2.50880       24.88220
    2761.37500        3.70296        2.51160       26.13400
    2761.50000        3.70341        2.51000       29.14210
    2761.62500        3.70802        2.50700       31.74380
    2761.75000        3.70454        2.49530       32.84920
    2761.87500        3.70600        2.48630       31.30890
    2762.00000        3.70656        2.48880       29.95920
    2762.12500        3.70347        2.50000       29.98490
    2762.25000        3.70578        2.50480       28.28130
    2762.37500        3.70346        2.50090       29.83200
    2762.50000        3.70476        2.49180       27.57870
