~Version Information Section
VERS. 2.0 : CWLS Log ASCII Standard - VERSION 2.0
WRAP. NO  : One Line per depth Step
~Well Information Section
#MNEM.UNIT                     Data                         Information
#----------   ------------------------------------------   ----------------
STRT.M                             1993.0000 : Start Depth
STOP.M                            2191.0000 : Stop Depth
NULL.        -999.25                        : Null Value
COMP.UPDATED NORSKHYDR                      : Company Name
WELL.        WELL-4                        : Well
FLD .        GLITNE                         : Field
LOC .        META                           : Location
PROV.                                       : Province
CNTY.                                       : County
STAT.        META                           : State/Province
CTRY.        NORWAY                       : Nation
SRVC.        30                             : Logging Company Code
DATE.        10-20-XXXX                    : Run Date
UWI .        WELL0004                       : Unique Well Identifier
API .                                       : API Number
~Parameter Information Block
#MNEM.UNIT       Value                            Description
#---------       ---------                        -------------
~Curve Information Section
#MNEM.UNIT    API CODE                      : Curve description
#---.-----    --------                      : -----------------
DEPT .m                                      : 
Vp   .km/s                                   : Vp(in Km/s)
RHOB .G/C3                                   : Bulk Density
GR   .GAPI                                   : Gamma Ray
~Ascii
# ...
    2115.97046        2.29997        2.27910      107.86650
    2116.12280        2.30693        2.27120      111.85150
    2116.27515        2.29997        2.27830      112.49630
    2116.42749        2.29997        2.28320      115.26400
    2116.58008        2.28445        2.28090      113.90160
    2116.73242        2.28788        2.27410      111.89450
    2116.88477        2.28445        2.27980      104.65790
    2117.03711        2.30344        2.28180      101.73390
    2117.18970        2.31745        2.28350       99.26630
    2117.34204        2.30170        2.27460      101.73360
    2117.49438        2.34419        2.27920      104.56910
    2117.64673        2.36970        2.28170      100.81590
    2117.79932        2.36053        2.28100      114.36040
    2117.95166        2.32630        2.28740      118.70630
    2118.10400        2.30518        2.29640      117.88940
    2118.25635        2.25071        2.29420      107.08880
    2118.40869        2.35506        2.28260      100.50520
    2118.56128        2.39955        2.27270       90.41690
    2118.71362        2.46555        2.27310       86.80670
    2118.86597        2.50403        2.27480       86.01580
    2119.01831        2.46156        2.27530      104.31070
    2119.17090        2.36602        2.27230      104.27950
    2119.32324        2.28960        2.28390      102.18860
    2119.47559        2.27422        2.28940      102.28920
    2119.62793        2.24574        2.29590      101.71160
    2119.78052        2.28445        2.29010      100.86990
    2119.93286        2.29997        2.29690       98.05880
    2120.08521        2.36236        2.29970       91.98920
    2120.23755        2.43599        2.29640       94.45620
    2120.38989        2.43404        2.29320      103.12730
    2120.54248        2.40523        2.29540      103.67570
    2120.69482        2.33342        2.29600      107.18650
    2120.84717        2.28274        2.30180      109.96740
    2120.99951        2.30344        2.29560      100.41350
    2121.15210        2.29997        2.28840       99.75230
    2121.30444        2.30344        2.26450       96.92070
    2121.45679        2.27253        2.26960      111.98940
    2121.60913        2.27933        2.27730      108.73720
    2121.76172        2.26241        2.29680      106.48060
    2121.91406        2.27933        2.30310      109.17970
    2122.06641        2.30518        2.30850       95.11770
    2122.21875        2.34599        2.31270       88.63870
    2122.37109        2.44380        2.31650       84.87740
    2122.52368        2.58692        2.31670       82.72370
    2122.67603        2.69440        2.35800       72.61240
    2122.82837        2.70636        2.43580       72.95150
    2122.98071        2.64989        2.56950       67.28210
    2123.13330        2.56947        2.61420       67.30170
    2123.28564        2.52896        2.53110       79.82700
    2123.43799        2.54374        2.40200       83.61830
    2123.59033        2.53950        2.31580       95.72800
    2123.74292        2.52687        2.28200      118.15410
    2123.89526        2.44380        2.27340      120.35070
    2124.04761        2.37524        2.28050      122.89320
    2124.19995        2.32985        2.28370      119.91560
    2124.35229        2.32807        2.27590      122.62720
    2124.50488        2.33700        2.25430      121.54910
    2124.65723        2.33521        2.23340      123.33690
    2124.80957        2.33342        2.26210      117.23850
    2124.96191        2.32098        2.31490      117.67470
    2125.11450        2.33164        2.34450      115.54380
    2125.26685        2.32985        2.31510      114.30630
    2125.41919        2.32452        2.30710      113.91400
    2125.57153        2.32098        2.32470      116.21620
    2125.72412        2.31569        2.32660      112.29140
    2125.87646        2.31569        2.31790      109.25650
    2126.02881        2.32098        2.30070      107.88590
    2126.18115        2.32630        2.28260      107.91100
    2126.33350        2.32098        2.25800      110.07800
    2126.48608        2.32807        2.24410      112.85200
    2126.63843        2.32985        2.24570      116.74780
    2126.79077        2.32807        2.24960      115.78470
    2126.94312        2.33879        2.24150      114.98630
    2127.09570        2.35506        2.22720      118.93850
    2127.24805        2.36419        2.21500      119.17270
    2127.40039        2.37895        2.21020      115.37300
    2127.55273        2.37710        2.22040      115.04100
    2127.70508        2.37895        2.21980      120.67520
    2127.85767        2.38640        2.20660      127.20880
    2128.01001        2.39766        2.19820      120.22440
    2128.16235        2.40144        2.19370      119.53230
    2128.31470        2.39766        2.20590      118.91480
    2128.46729        2.40334        2.21050      120.29350
    2128.61963        2.39955        2.22530      121.21140
    2128.77197        2.39390        2.22710      125.04000
    2128.92432        2.39202        2.24420      127.26220
    2129.07690        2.38267        2.28530      121.91090
    2129.22925        2.36602        2.35560      124.37110
    2129.38159        2.35688        2.33730      122.35670
    2129.53394        2.33164        2.27380      124.61930
    2129.68628        2.41859        2.22780      126.57390
    2129.83887        2.39766        2.24710      122.91080
    2129.99121        2.39390        2.27250      133.55510
    2130.14355        2.37895        2.28230      130.58730
    2130.29590        2.40523        2.27700      130.24100
    2130.44849        2.41285        2.25840      128.88560
    2130.60083        2.41667        2.25940      113.11540
    2130.75317        2.43599        2.26700      104.60290
    2130.90552        2.54799        2.28080       89.82160
    2131.05811        2.84001        2.30890       78.11830
    2131.21045        3.32302        2.37560       79.81210
    2131.36279        3.35595        2.47280       91.60280
    2131.51514        3.41231        2.50880      101.43390
    2131.66748        2.95567        2.41270      103.18180
    2131.82007        2.65914        2.32730       99.26630
    2131.97241        2.73550        2.28840      102.19100
    2132.12476        2.85865        2.29840      100.56080
    2132.27710        2.89669        2.29240       97.90210
    2132.42969        2.90774        2.27620      101.11900
    2132.58203        2.31393        2.27010      100.43330
    2132.73438        2.64071        2.26740      101.91370
    2132.88672        2.53317        2.27260      101.64700
    2133.03931        2.65450        2.26660       90.52470
    2133.19165        2.72816        2.26950       92.78940
    2133.34399        2.75778        2.26390       98.96330
    2133.49634        2.91609        2.25920      102.55100
    2133.64868        2.78805        2.24970      109.77240
    2133.80127        2.81899        2.26030      113.14120
    2133.95361        2.39014        2.26620      115.25430
    2134.10596        2.32807        2.26790      117.00180
    2134.25830        2.10608        2.26210      114.20010
    2134.41089        2.08590        2.28920      111.55320
    2134.56323        2.06891        2.34780      114.04990
    2134.71558        2.36786        2.38670      120.24050
    2134.86792        2.36419        2.34560      123.18350
    2135.02051        2.29477        2.27820      120.57740
    2135.17285        2.23914        2.23440      108.14190
    2135.32520        2.26073        2.23500      105.41870
    2135.47754        2.27762        2.23750      106.60760
    2135.62988        2.29823        2.25450      106.97570
    2135.78247        2.23750        2.28140      104.37790
    2135.93481        2.25905        2.30130      102.86560
    2136.08716        2.23422        2.29860      106.12510
    2136.23950        2.22443        2.28970      108.87100
