~Version Information Section
VERS. 2.0 : CWLS Log ASCII Standard - VERSION 2.0
WRAP. NO  : One Line per depth Step
~Well Information Section
#MNEM.UNIT                     Data                         Information
#----------   ------------------------------------------   ----------------
STRT.M                             1360.0000 : Start Depth
STOP.M                            2763.0000 : Stop Depth
NULL.        -999.25                        : Null Value
COMP.UPDATED NORSKHYDR                      : Company Name
WELL.        WELL-1                        : Well
FLD .        GLITNE                          : Field
LOC .        META                           : Location
PROV.                                       : Province
CNTY.                                       : County
STAT.        META                           : State/Province
CTRY.        NORWAY                         : Nation
SRVC.        30                             : Logging Company Code
DATE.        11-20-XXXX                    : Run Date
UWI .        WELL0001                       : Unique Well Identifier
API .                                       : API Number
~Parameter Information Block
#MNEM.UNIT       Value                            Description
#---------       ---------                        -------------
~Curve Information Section
#MNEM.UNIT    API CODE                      : Curve description
#---.-----    --------                      : -----------------
DEPT .M                                      : 
Vp   .KM/S                                   : Vp
RHOB .G/C3                                   : Bulk Density
GR   .GAPI                                   : Gamma Ray
~Ascii
# ...
    2566.12500        3.03042        2.28080       49.00730
    2566.25000        3.06006        2.30030       51.62170
    2566.37500        3.06895        2.30340       49.25530
    2566.50000        3.05935        2.28700       45.69810
    2566.62500        3.03369        2.25960       42.64140
    2566.75000        3.00064        2.24190       40.98940
    2566.87500        2.97384        2.22270       40.83500
    2567.00000        2.86632        2.21110       42.37290
    2567.12500        2.76831        2.21260       43.44230
    2567.25000        2.71469        2.21530       43.82900
    2567.37500        2.68924        2.20550       42.69480
    2567.50000        2.67596        2.19430       39.46350
    2567.62500        2.74768        2.17570       35.56750
    2567.75000        2.86464        2.17100       33.17720
    2567.87500        2.94815        2.17960       30.86910
    2568.00000        2.98924        2.19180       30.00110
    2568.12500        2.99729        2.19310       29.74600
    2568.25000        2.98994        2.18670       26.89010
    2568.37500        2.98694        2.18030       27.62060
    2568.50000        2.98641        2.17480       25.86370
    2568.62500        3.01843        2.17560       26.48460
    2568.75000        3.05965        2.18330       27.71240
    2568.87500        3.08449        2.18170       27.33130
    2569.00000        3.13160        2.19070       29.43300
    2569.12500        3.13107        2.19690       31.49940
    2569.25000        3.09934        2.19760       34.33450
    2569.37500        3.06348        2.18930       35.62770
    2569.50000        3.02402        2.16830       34.74220
    2569.62500        2.96140        2.14420       32.85870
    2569.75000        2.89085        2.13110       30.82100
    2569.87500        2.88413        2.11990       32.07270
    2570.00000        2.87951        2.11390       32.45890
    2570.12500        2.88237        2.11620       32.27180
    2570.25000        2.89886        2.12100       31.82600
    2570.37500        2.89604        2.13200       28.64770
    2570.50000        2.90836        2.13480       27.00430
    2570.62500        2.89336        2.13310       25.21810
    2570.75000        2.87186        2.13140       24.48260
    2570.87500        2.85083        2.13300       24.28080
    2571.00000        2.82773        2.13460       23.36520
    2571.12500        2.81701        2.14040       24.55710
    2571.25000        2.81570        2.14260       24.90540
    2571.37500        2.83248        2.14260       25.91230
    2571.50000        2.84395        2.14260       25.99510
    2571.62500        2.83657        2.14260       24.54570
    2571.75000        2.82713        2.14260       23.68750
    2571.87500        2.80976        2.14260       22.54690
    2572.00000        2.78851        2.13810       22.50710
    2572.12500        2.78026        2.12900       22.48110
    2572.25000        2.78287        2.11950       22.78690
    2572.37500        2.78740        2.12270       24.10250
    2572.50000        2.80582        2.12590       24.93550
    2572.62500        2.79804        2.13240       25.22420
    2572.75000        2.79473        2.13450       25.13020
    2572.87500        2.78315        2.12930       25.11340
    2573.00000        2.76876        2.12300       25.05940
    2573.12500        2.78572        2.11980       24.11870
    2573.25000        2.80676        2.12300       23.88800
    2573.37500        2.83796        2.13070       22.35150
    2573.50000        2.86569        2.14030       22.95220
    2573.62500        2.88471        2.15080       24.66240
    2573.75000        2.89976        2.16690       25.86100
    2573.87500        2.93700        2.19780       29.92360
    2574.00000        2.94367        2.22870       32.34030
    2574.12500        2.93458        2.24180       33.34670
    2574.25000        2.93224        2.22910       32.63940
    2574.37500        2.92970        2.19570       30.47390
    2574.50000        2.89457        2.16690       27.81850
    2574.62500        2.86943        2.15140       27.35720
    2574.75000        2.86073        2.14350       27.07790
    2574.87500        2.85777        2.14000       27.30820
    2575.00000        2.86515        2.13920       28.07830
    2575.12500        2.88326        2.14240       28.85160
    2575.25000        2.88887        2.15640       27.92890
    2575.37500        2.89045        2.16020       26.48950
    2575.50000        2.89289        2.15680       25.27560
    2575.62500        2.89278        2.14800       25.31470
    2575.75000        2.89462        2.13410       26.94180
    2575.87500        2.90608        2.12610       29.64480
    2576.00000        2.90325        2.14020       31.02890
    2576.12500        2.93623        2.16500       32.39020
    2576.25000        2.95878        2.18780       33.43580
    2576.37500        2.96517        2.19730       34.40460
    2576.50000        2.95587        2.18760       35.33910
    2576.62500        2.92245        2.16380       35.62100
    2576.75000        2.88704        2.14840       32.89730
    2576.87500        2.86293        2.13990       30.52090
    2577.00000        2.86112        2.13720       29.59130
    2577.12500        2.87906        2.13940       29.56010
    2577.25000        2.90410        2.14580       29.37650
    2577.37500        2.91549        2.15080       31.24760
    2577.50000        2.91166        2.15020       30.06210
    2577.62500        2.92708        2.14770       29.39210
    2577.75000        2.94269        2.14610       28.01090
    2577.87500        2.94289        2.14460       25.71710
    2578.00000        2.93380        2.15100       25.02390
    2578.12500        2.89523        2.15620       23.21690
    2578.25000        2.93491        2.16560       22.49780
    2578.37500        2.96866        2.17840       22.85710
    2578.50000        2.98260        2.19230       24.59850
    2578.62500        3.00999        2.21310       27.64990
    2578.75000        3.12057        2.21480       29.90550
    2578.87500        3.05495        2.21600       30.90460
    2579.00000        3.02127        2.20910       31.17190
    2579.12500        3.03174        2.19440       31.06760
    2579.25000        3.04361        2.18300       30.30040
    2579.37500        2.98370        2.16860       28.06300
    2579.50000        2.91782        2.16600       28.07580
    2579.62500        2.89354        2.16700       27.83600
    2579.75000        2.88655        2.17040       28.41260
    2579.87500        2.90457        2.17890       29.89520
    2580.00000        2.94814        2.19810       31.84770
    2580.12500        2.95693        2.21890       33.50100
    2580.25000        2.95188        2.22230       35.09440
    2580.37500        2.96627        2.21100       33.56250
    2580.50000        2.97654        2.19130       31.51860
    2580.62500        2.98188        2.17200       30.01050
    2580.75000        3.00439        2.17360       28.41960
    2580.87500        3.02579        2.17110       30.00870
    2581.00000        3.01863        2.17090       31.05480
    2581.12500        3.00834        2.17190       32.13160
    2581.25000        3.00047        2.17580       32.56020
    2581.37500        3.00220        2.19670       32.15040
    2581.50000        3.03748        2.20660       32.61170
    2581.62500        3.03248        2.20900       32.37590
    2581.75000        3.02168        2.19700       32.09090
    2581.87500        3.01351        2.17910       31.09210
    2582.00000        3.01420        2.17160       30.12100
    2582.12500        3.02764        2.16840       30.47310
    2582.25000        3.05251        2.17080       30.02460
    2582.37500        3.25780        2.17710       29.54260
    2582.50000        3.44011        2.18790       28.76950
    2582.62500        3.53175        2.20060       28.36770
    2582.75000        3.53428        2.20700       28.82370
