~Version Information Section
VERS. 2.0 : CWLS Log ASCII Standard - VERSION 2.0
WRAP. NO  : One Line per depth Step
~Well Information Section
#MNEM.UNIT                     Data                         Information
#----------   ------------------------------------------   ----------------
STRT.M                             200.0000 : Start Depth
STOP.M                            5021.0000 : Stop Depth
NULL.        -9999.00000                        : Null Value
COMP.UPDATED NORSKHYDR                      : Company Name
WELL.        WELL-3                        : Well
FLD .        GLITNE                          : Field
LOC .        META                           : Location
PROV.                                       : Province
CNTY.                                       : County
STAT.        META                           : State/Province
CTRY.        NORWAY                      : Nation
SRVC.        30                             : Logging Company Code
DATE.        10-20-XXXX                    : Run Date
UWI .        WELL0003                       : Unique Well Identifier
API .                                       : API Number
~Parameter Information Block
#MNEM.UNIT       Value                            Description
#---------       ---------                        -------------
~Curve Information Section
#MNEM.UNIT    API CODE                      : Curve description
#---.-----    --------                      : -----------------
DEPT .m                                      : 
Vp   .km/s                                   : Vp(in Km/s)
RHOB .G/C3                                   : Bulk Density
GR   .GAPI                                   : Gamma Ray
~Ascii
# ...
    4999.22607        4.85681        2.73180       91.42820
    4999.37842        4.93366        2.72110       88.58140
    4999.53076        4.89981        2.73110       86.35290
    4999.68311        4.43302        2.73060       81.61930
    4999.83545        4.75828        2.75150       78.02870
    4999.98779        4.92266        2.71160       74.31650
    5000.14062        5.02271        2.70820       71.61370
    5000.29297        5.12070        2.67680       69.76990
    5000.44531        5.27236        2.68000       68.04660
    5000.59766        5.22728        2.67290       65.86340
    5000.75000        5.11436        2.68460       66.34880
    5000.90234        4.95812        2.71870       69.24650
    5001.05469        4.85098        2.71840       70.81110
    5001.20703        4.76375        2.71090       70.31590
    5001.35938        4.54209        2.68420       66.57280
    5001.51221        5.30080        2.69660       63.45700
    5001.66455        4.94540        2.69400       64.86670
    5001.81689        4.30914        2.69170       67.50910
    5001.96924        4.48832        2.66710       71.64660
    5002.12158        4.14984        2.68090       73.65160
    5002.27393        4.31170        2.68070       73.12780
    5002.42627        4.23454        2.69210       70.09600
    5002.57861        5.77837        2.67290       68.26430
    5002.73096        5.52181        2.65790       66.70150
    5002.88379        4.92865        2.65660       67.22110
    5003.03613        4.87324        2.66210       70.20400
    5003.18848        4.98039        2.68360       74.76910
    5003.34082        6.35994        2.69100       78.63890
    5003.49316        5.83798        2.68270       81.58300
    5003.64551        5.69274        2.69730       84.27640
    5003.79785        5.12099        2.70180       86.35290
    5003.95020        4.78317        2.72300       88.52870
    5004.10303        4.84930        2.71870       87.53020
    5004.25537        4.85441        2.73370       84.13410
    5004.40771        5.21241        2.70960       81.35400
    5004.56006        5.44792        2.70280       79.99520
    5004.71240        5.44575        2.69850       77.84240
    5004.86475        5.92644        2.68560       75.46030
    5005.01709        5.38515        2.68230       74.84480
    5005.16943        4.94539        2.67090       76.53690
    5005.32178        4.94099        2.69990       79.64890
    5005.47461        4.96993        2.72360       80.53770
    5005.62695        4.92314        2.72880       76.71160
    5005.77930        4.88205        2.72660       71.24160
    5005.93164        4.77759        2.70580       71.15250
    5006.08398        4.72985        2.69490       76.61270
    5006.23633        4.74776        2.67030       81.44370
    5006.38867        4.80227        2.65370       84.03700
    5006.54102        4.86337        2.66450       82.60890
    5006.69336        4.94412        2.68190       79.76790
    5006.84619        5.04291        2.66440       76.90450
    5006.99854        5.08885        2.66370       74.34880
    5007.15088        5.07538        2.65140       72.95640
    5007.30322        5.06055        2.64520       71.91120
    5007.45557        5.03922        2.63470       70.62970
    5007.60791        5.01589        2.61590       69.86600
    5007.76025        4.99318        2.61980       70.78000
    5007.91260        5.00104        2.62600       73.29000
    5008.06543        5.05331        2.64200       75.05640
    5008.21777        5.07052        2.64780       75.36030
    5008.37012        5.04563        2.64780       73.60870
    5008.52246        4.89041        2.66830       69.05640
    5008.67480        4.80970        2.68970       66.83510
    5008.82715        4.80794        2.69010       67.95100
    5008.97949        4.92827        2.68190       72.48530
    5009.13184        5.05348        2.67150       75.14060
    5009.28418        5.10962        2.66080       74.52260
    5009.43701        5.14263        2.66540       70.67830
    5009.58936        5.13952        2.67250       69.01470
    5009.74170        5.01339        2.67770       67.23890
    5009.89404        4.89052        2.68880       67.22110
    5010.04639        4.76397        2.70160       71.03620
    5010.19873        4.67351        2.73270       79.89490
    5010.35107        4.73376        2.73440       91.51380
    5010.50342        4.80621        2.73310       99.83310
    5010.65576        4.81504        2.73050       98.36050
    5010.80859        4.82031        2.74450       91.54240
    5010.96094        4.83641        2.70830       81.47770
    5011.11328        4.86079        2.66240       75.71800
    5011.26562        4.88249        2.64390       71.80630
    5011.41797        4.89653        2.64520       72.66360
    5011.57031        4.90467        2.66660       73.72490
    5011.72266        4.91489        2.66580       73.13320
    5011.87500        4.88219        2.69300       72.03080
    5012.02783        4.95263        2.68950       72.56180
    5012.18018        5.35303        2.67940       76.49700
    5012.33252        5.20848        2.68200       77.80230
    5012.48486        5.17168        2.71030       75.25910
    5012.63721        5.22014        2.74040       69.55760
    5012.78955        5.24859        2.70970       62.80410
    5012.94189        5.24859        2.68910       57.08020
    5013.09424        5.10630        2.66860       55.89000
    5013.24658        5.11941        2.67420       62.14940
    5013.39941        5.09393        2.68880       69.88390
    5013.55176        4.80650        2.70480       78.68450
    5013.70410        4.78393        2.70180       84.97160
    5013.85645        4.78959        2.69470       91.31180
    5014.00879        4.79671        2.69500       97.31750
    5014.16113        4.82430        2.71520      100.46390
    5014.31348        4.87795        2.73350      100.79010
    5014.46582        4.90362        2.77250       99.31530
    5014.61816        4.92932        2.79040       93.93550
    5014.77100        4.97598        2.74800       87.08870
    5014.92334        5.10702        2.69600       82.78440
    5015.07568        5.25542        2.68360       81.00170
    5015.22803        5.47024        2.70600       80.56150
    5015.38037        5.66267        2.71740       79.99160
    5015.53271        5.81393        2.69760       78.66410
    5015.68506        5.92378        2.68300       77.41880
    5015.83740        5.99472        2.69890       79.51220
    5015.99023        6.03152        2.70030       82.28820
    5016.14258        6.04067        2.70850       83.14690
    5016.29492        6.02961        2.67510       81.86610
    5016.44727        6.00623        2.65710       79.09380
    5016.59961        5.97832        2.63580       74.31640
    5016.75195        5.95373        2.65200       71.28820
    5016.90430        5.93977        2.66550       70.60420
    5017.05664        6.04932        2.68880       74.19070
    5017.20898        6.29296        2.67980       78.01130
    5017.36182        6.36137        2.69590       78.07260
    5017.51416        6.41461        2.67600       75.15240
    5017.66650        6.02387        2.65590       75.62060
    5017.81885        5.79192        2.64160       78.18470
    5017.97119        5.63125        2.62730       80.44080
    5018.12354        6.09771        2.62890       81.35240
    5018.27588        6.02473        2.63360       81.78670
    5018.42822        5.98886        2.65990       82.10030
    5018.58057        5.89253        2.67840       80.56690
    5018.73340        5.22559        2.67900       76.38250
    5018.88574        5.01060        2.67000       69.92300
    5019.03809        4.98668        2.68880       68.16120
    5019.19043        4.96745        2.68690       68.61330
    5019.34277        4.94889        2.68940       72.19440
    5019.49512        4.92190        2.67130       73.26050
