~Version Information Section
VERS. 2.0 : CWLS Log ASCII Standard - VERSION 2.0
WRAP. NO  : One Line per depth Step
~Well Information Section
#MNEM.UNIT                     Data                         Information
#----------   ------------------------------------------   ----------------
STRT.M                             200.0000 : Start Depth
STOP.M                            5021.0000 : Stop Depth
NULL.        -9999.00000                        : Null Value
COMP.UPDATED NORSKHYDR                      : Company Name
WELL.        WELL-3                        : Well
FLD .        GLITNE                          : Field
LOC .        META                           : Location
PROV.                                       : Province
CNTY.                                       : County
STAT.        META                           : State/Province
CTRY.        NORWAY                      : Nation
SRVC.        30                             : Logging Company Code
DATE.        10-20-XXXX                    : Run Date
UWI .        WELL0003                       : Unique Well Identifier
API .                                       : API Number
~Parameter Information Block
#MNEM.UNIT       Value                            Description
#---------       ---------                        -------------
~Curve Information Section
#MNEM.UNIT    API CODE                      : Curve description
#---.-----    --------                      : -----------------
DEPT .m                                      : 
Vp   .km/s                                   : Vp(in Km/s)
RHOB .G/C3                                   : Bulk Density
GR   .GAPI                                   : Gamma Ray
~Ascii
# ...
    1793.03479        2.27888        2.03370       43.37500
    1793.18726        2.24945        2.05350       43.25000
    1793.33960        2.19281        2.06620       36.37500
    1793.49194        2.17714        2.05490       33.87500
    1793.64441        2.19084        2.00040       35.21880
    1793.79675        2.19281        1.95870       35.90620
    1793.94922        2.19084        1.94590       37.25000
    1794.10156        2.17134        1.94710       38.43650
    1794.25403        2.11667        1.94370       40.28120
    1794.40637        1.92925        1.94270       44.99620
    1794.55884        1.99053        1.94780       41.18750
    1794.71118        2.14083        1.95710       38.53130
    1794.86365        2.16170        1.96420       34.25000
    1795.01599        2.20072        1.98070       35.53130
    1795.16846        2.18104        1.98810       39.28130
    1795.32080        2.12404        2.00810       35.09380
    1795.47314        2.15597        2.02010       33.40620
    1795.62561        2.13520        2.02940       33.40620
    1795.77795        2.21666        2.03000       36.40380
    1795.93042        2.23297        2.04540       36.18750
    1796.08276        2.28524        2.04930       35.65670
    1796.23523        2.26828        2.04260       37.56250
    1796.38757        2.24946        2.00310       37.62490
    1796.54004        2.19676        1.96870       34.53130
    1796.69238        2.14459        1.95050       31.40630
    1796.84485        2.15597        1.95860       29.53130
    1796.99719        2.15406        1.95100       33.25000
    1797.14966        2.16554        1.94110       36.56250
    1797.30200        2.18691        1.91140       38.93750
    1797.45435        2.14648        1.89190       40.09380
    1797.60681        2.23297        1.90850       40.43750
    1797.75916        2.23297        1.96400       39.28220
    1797.91162        2.15979        2.01150       38.75000
    1798.06396        2.12963        2.00630       35.78360
    1798.21643        2.12589        1.97760       41.84370
    1798.36877        2.12589        1.96840       37.40980
    1798.52124        2.20072        1.99210       39.81250
    1798.67358        2.28529        2.00760       32.65630
    1798.82605        2.23501        1.99070       34.65620
    1798.97839        2.20271        1.94930       34.68750
    1799.13086        2.24118        1.91340       37.00000
    1799.28320        2.18104        1.88520       34.37500
    1799.43555        2.16939        1.88470       37.37500
    1799.58801        2.15979        1.90070       36.21870
    1799.74036        2.14649        1.92420       37.99860
    1799.89282        2.15979        1.91510       34.34370
    1800.04517        2.21668        1.90150       36.12360
    1800.19763        2.24945        1.90090       35.12500
    1800.34998        2.24531        1.90130       34.53170
    1800.50244        2.22482        1.90270       36.40630
    1800.65479        2.15406        1.92140       38.09370
    1800.80725        2.08055        1.95880       38.15630
    1800.95959        2.05425        1.95950       38.59380
    1801.11206        2.05425        1.92630       39.71880
    1801.26440        2.11117        1.91440       40.81250
    1801.41675        2.11667        1.94180       42.75000
    1801.56921        2.17133        1.96390       48.34380
    1801.72156        2.20268        1.94640       50.21720
    1801.87402        2.16939        1.94220       43.53130
    1802.02637        2.14650        1.94840       40.00280
    1802.17883        2.07347        2.00190       38.12500
    1802.33118        2.03542        2.03310       43.05850
    1802.48364        2.04050        2.03860       43.50000
    1802.63599        2.03880        2.00510       39.18750
    1802.78845        2.05253        1.97000       34.78130
    1802.94080        2.09125        1.92840       32.93750
    1803.09314        2.09485        1.90140       34.37500
    1803.24561        2.12404        1.91570       44.09380
    1803.39795        2.14083        1.93980       44.84370
    1803.55042        2.14648        1.97020       47.43750
    1803.70276        2.18101        1.94410       39.60000
    1803.85522        2.18691        1.95610       36.90630
    1804.00757        2.16556        1.97820       39.71650
    1804.16003        2.17133        2.03190       42.81250
    1804.31238        2.13523        2.03620       46.49700
    1804.46484        2.17714        2.02010       42.71880
    1804.61719        2.26828        1.96820       43.87500
    1804.76965        2.22888        1.91890       42.68750
    1804.92200        2.20670        1.90410       44.00000
    1805.07434        2.20072        1.93110       43.56250
    1805.22681        2.12961        1.98260       42.00000
    1805.37915        2.15979        1.99210       41.34380
    1805.53162        2.17714        1.97190       39.90630
    1805.68396        2.16940        1.95070       38.46990
    1805.83643        2.17714        1.92440       38.46880
    1805.98877        2.18494        1.91490       36.12690
    1806.14124        2.14459        1.90410       38.03130
    1806.29358        2.11485        1.91820       36.09530
    1806.44604        2.09485        1.94550       35.93750
    1806.59839        2.10934        1.95790       34.15630
    1806.75085        2.16939        1.94690       35.71880
    1806.90320        2.21673        1.92030       38.81250
    1807.05554        2.24945        1.92740       39.28130
    1807.20801        2.24945        1.96660       38.96880
    1807.36035        2.18495        2.01330       37.00000
    1807.51282        2.13520        2.03390       36.96880
    1807.66516        2.12961        2.02780       40.77820
    1807.81763        2.12404        2.01340       43.96880
    1807.96997        2.16551        2.01300       44.00000
    1808.12244        2.20072        2.03650       39.75000
    1808.27478        2.19281        2.07250       38.03260
    1808.42725        2.14459        2.07770       39.37500
    1808.57959        2.13895        2.05450       40.00000
    1808.73206        2.09665        2.01620       39.34370
    1808.88440        2.12404        2.01090       43.43750
    1809.03674        2.13147        2.01870       46.31250
    1809.18921        2.16170        2.02200       47.50000
    1809.34155        2.15597        2.03890       45.12500
    1809.49402        2.19676        2.07100       45.25000
    1809.64636        2.19084        2.07420       40.97220
    1809.79883        2.17714        2.06050       36.78130
    1809.95117        2.18103        2.03110       33.69000
    1810.10364        2.21874        2.05010       35.46880
    1810.25598        2.20074        2.05420       37.81060
    1810.40845        2.25152        2.02740       39.50000
    1810.56079        2.24118        1.97140       37.06250
    1810.71326        2.22279        1.92940       33.37500
    1810.86560        2.17714        1.90700       27.93750
    1811.01794        2.15026        1.90250       26.14060
    1811.17041        2.11117        1.91380       31.76560
    1811.32275        2.15023        1.94110       31.85930
    1811.47522        2.15979        1.98610       35.03130
    1811.62756        2.18102        2.01250       30.67540
    1811.78003        2.16170        1.98610       34.90630
    1811.93237        2.18689        1.93350       37.81020
    1812.08484        2.17714        1.92160       40.87500
    1812.23718        2.13150        1.95840       43.90380
    1812.38965        2.11483        2.00100       41.46880
    1812.54199        2.13147        2.02940       43.25000
    1812.69446        2.11667        2.04940       40.21880
    1812.84680        2.09125        2.06710       43.96880
    1812.99915        2.09665        2.06950       36.75000
    1813.15161        2.09485        2.06110       36.90630
    1813.30396        2.15592        2.02870       33.19050
