~Version Information Section
VERS. 2.0 : CWLS Log ASCII Standard - VERSION 2.0
WRAP. NO  : One Line per depth Step
~Well Information Section
#MNEM.UNIT                     Data                         Information
#----------   ------------------------------------------   ----------------
STRT.M                             2100.0000 : Start Depth
STOP.M                            2300.0000 : Stop Depth
NULL.        -999.25                        : Null Value
COMP.UPDATED NORSKHYDR                      : Company Name
WELL.        WELL-5                        : Well
FLD .        GLITNE                         : Field
LOC .        META                           : Location
PROV.                                       : Province
CNTY.                                       : County
STAT.        META                           : State/Province
CTRY.        NORWAY                       : Nation
SRVC.        30                             : Logging Company Code
DATE.        10-20-XXXX                    : Run Date
UWI .        WELL0005                       : Unique Well Identifier
API .                                       : API Number
~Parameter Information Block
#MNEM.UNIT       Value                            Description
#---------       ---------                        -------------
~Curve Information Section
#MNEM.UNIT    API CODE                      : Curve description
#---.-----    --------                      : -----------------
DEPT .m                                      : 
Vp   .km/s                                   : Vp(in Km/s)
Vs   .km/s                                   : Vs(in km/s)
GR   .GAPI                                   : Gamma Ray
RHOB .G/C3                                   : Bulk Density
~Ascii
# ...
   2.2056853e+03   9.5830000e+01   1.7997700e+02   6.3200000e+01   2.1720000e+00
   2.2058376e+03   9.5941000e+01   1.8303200e+02   6.2404000e+01   2.1720000e+00
   2.2059900e+03   9.5893000e+01   1.8728100e+02   6.1891000e+01   2.1670000e+00
   2.2061423e+03   9.5803000e+01   1.9103900e+02   6.2775000e+01   2.1670000e+00
   2.2062949e+03   9.5559000e+01   1.9043100e+02   6.5080000e+01   2.1690000e+00
   2.2064473e+03   9.5125000e+01   1.8998000e+02   6.4051000e+01   2.1720000e+00
   2.2065996e+03   9.4490000e+01   1.8492800e+02   6.1490000e+01   2.1730000e+00
   2.2067520e+03   9.4087000e+01   1.8024100e+02   6.1259000e+01   2.1720000e+00
   2.2069045e+03   9.4033000e+01   1.7788900e+02   6.3383000e+01   2.1730000e+00
   2.2070569e+03   9.4385000e+01   1.7905800e+02   6.4936000e+01   2.1780000e+00
   2.2072092e+03   9.4745000e+01   1.8010200e+02   6.4396000e+01   2.1860000e+00
   2.2073616e+03   9.4848000e+01   1.8081100e+02   6.2512000e+01   2.1860000e+00
   2.2075139e+03   9.4657000e+01   1.8081600e+02   6.1309000e+01   2.1790000e+00
   2.2076665e+03   9.4170000e+01   1.8041700e+02   6.1473000e+01   2.1800000e+00
   2.2078188e+03   9.3779000e+01   1.8017400e+02   6.1405000e+01   2.1860000e+00
   2.2079712e+03   9.3637000e+01   1.8024900e+02   6.0438000e+01   2.1840000e+00
   2.2081235e+03   9.3763000e+01   1.8011200e+02   5.9655000e+01   2.1780000e+00
   2.2082761e+03   9.4126000e+01   1.7997200e+02   6.1434000e+01   2.1770000e+00
   2.2084285e+03   9.4760000e+01   1.7949600e+02   6.4226000e+01   2.1790000e+00
   2.2085808e+03   9.5271000e+01   1.7909400e+02   6.6049000e+01   2.1790000e+00
   2.2087332e+03   9.5483000e+01   1.7775000e+02   6.6715000e+01   2.1750000e+00
   2.2088857e+03   9.5343000e+01   1.7716400e+02   6.6356000e+01   2.1740000e+00
   2.2090381e+03   9.4904000e+01   1.7648400e+02   6.6251000e+01   2.1770000e+00
   2.2091904e+03   9.4215000e+01   1.7527800e+02   6.6495000e+01   2.1810000e+00
   2.2093428e+03   9.3625000e+01   1.7441400e+02   6.7188000e+01   2.1850000e+00
   2.2094951e+03   9.3279000e+01   1.7378600e+02   6.7818000e+01   2.1880000e+00
   2.2096477e+03   9.3090000e+01   1.7368200e+02   6.6532000e+01   2.1900000e+00
   2.2098000e+03   9.3005000e+01   1.7387300e+02   6.3747000e+01   2.1920000e+00
   2.2099524e+03   9.2931000e+01   1.7399800e+02   6.3894000e+01   2.1900000e+00
   2.2101047e+03   9.2846000e+01   1.7448500e+02   6.5827000e+01   2.1860000e+00
   2.2102573e+03   9.2714000e+01   1.7459900e+02   6.5282000e+01   2.1840000e+00
   2.2104097e+03   9.2648000e+01   1.7426200e+02   6.4622000e+01   2.1860000e+00
   2.2105620e+03   9.2749000e+01   1.7367800e+02   6.3389000e+01   2.1960000e+00
   2.2107144e+03   9.3013000e+01   1.7336400e+02   6.1950000e+01   2.2060000e+00
   2.2108669e+03   9.3456000e+01   1.7391500e+02   6.2764000e+01   2.2060000e+00
   2.2110193e+03   9.4013000e+01   1.7465800e+02   6.4461000e+01   2.1980000e+00
   2.2111716e+03   9.4728000e+01   1.7569300e+02   6.6671000e+01   2.1960000e+00
   2.2113240e+03   9.5302000e+01   1.7625400e+02   6.9134000e+01   2.2000000e+00
   2.2114763e+03   9.5585000e+01   1.7726400e+02   6.8215000e+01   2.2040000e+00
   2.2116289e+03   9.5512000e+01   1.7730000e+02   6.4519000e+01   2.2040000e+00
   2.2117812e+03   9.5096000e+01   1.7709400e+02   6.2129000e+01   2.1960000e+00
   2.2119336e+03   9.4362000e+01   1.7624200e+02   6.0747000e+01   2.1830000e+00
   2.2120859e+03   9.3711000e+01   1.7551900e+02   5.8509000e+01   2.1750000e+00
   2.2122385e+03   9.3315000e+01   1.7536000e+02   5.7406000e+01   2.1750000e+00
   2.2123909e+03   9.3225000e+01   1.7498700e+02   5.8672000e+01   2.1790000e+00
   2.2125432e+03   9.3413000e+01   1.7515200e+02   6.1549000e+01   2.1890000e+00
   2.2126956e+03   9.3873000e+01   1.7450000e+02   6.4427000e+01   2.1990000e+00
   2.2128481e+03   9.4394000e+01   1.7425300e+02   6.5308000e+01   2.2010000e+00
   2.2130005e+03   9.4579000e+01   1.7419500e+02   6.5679000e+01   2.1990000e+00
   2.2131528e+03   9.4364000e+01   1.7436500e+02   6.7226000e+01   2.1990000e+00
   2.2133052e+03   9.4197000e+01   1.7451300e+02   6.8274000e+01   2.1980000e+00
   2.2134575e+03   9.4395000e+01   1.7477400e+02   6.5049000e+01   2.1950000e+00
   2.2136101e+03   9.4693000e+01   1.7483000e+02   6.2462000e+01   2.1940000e+00
   2.2137625e+03   9.4809000e+01   1.7528300e+02   6.4726000e+01   2.1930000e+00
   2.2139148e+03   9.4640000e+01   1.7557200e+02   6.4996000e+01   2.1870000e+00
   2.2140671e+03   9.4198000e+01   1.7588900e+02   6.2448000e+01   2.1810000e+00
   2.2142197e+03   9.3779000e+01   1.7592500e+02   6.2425000e+01   2.1820000e+00
   2.2143721e+03   9.3499000e+01   1.7638700e+02   6.4128000e+01   2.1830000e+00
   2.2145244e+03   9.3335000e+01   1.7653200e+02   6.4503000e+01   2.1820000e+00
   2.2146768e+03   9.3251000e+01   1.7638700e+02   6.4557000e+01   2.1830000e+00
   2.2148293e+03   9.3222000e+01   1.7582400e+02   6.3551000e+01   2.1890000e+00
   2.2149817e+03   9.3266000e+01   1.7536600e+02   6.0513000e+01   2.1940000e+00
   2.2151340e+03   9.3342000e+01   1.7533700e+02   6.0109000e+01   2.2010000e+00
   2.2152864e+03   9.3389000e+01   1.7556000e+02   6.3733000e+01   2.2060000e+00
   2.2154387e+03   9.3414000e+01   1.7605400e+02   6.7298000e+01   2.2050000e+00
   2.2155913e+03   9.3439000e+01   1.7586300e+02   6.9228000e+01   2.2020000e+00
   2.2157437e+03   9.3473000e+01   1.7566000e+02   6.9884000e+01   2.2000000e+00
   2.2158960e+03   9.3535000e+01   1.7559000e+02   6.9084000e+01   2.1980000e+00
   2.2160483e+03   9.3549000e+01   1.7582300e+02   6.7121000e+01   2.1900000e+00
   2.2162009e+03   9.3532000e+01   1.7627000e+02   6.4591000e+01   2.1780000e+00
   2.2163533e+03   9.3456000e+01   1.7683400e+02   6.1356000e+01   2.1680000e+00
   2.2165056e+03   9.3340000e+01   1.7741300e+02   5.9061000e+01   2.1680000e+00
   2.2166580e+03   9.3250000e+01   1.7748900e+02   5.9148000e+01   2.1710000e+00
   2.2168105e+03   9.3199000e+01   1.7764500e+02   6.1340000e+01   2.1710000e+00
   2.2169629e+03   9.3201000e+01   1.7769900e+02   6.3175000e+01   2.1660000e+00
   2.2171152e+03   9.3248000e+01   1.7742100e+02   6.3365000e+01   2.1620000e+00
   2.2172676e+03   9.3330000e+01   1.7712600e+02   6.3153000e+01   2.1640000e+00
   2.2174199e+03   9.3405000e+01   1.7662800e+02   6.2626000e+01   2.1760000e+00
   2.2175725e+03   9.3469000e+01   1.7668700e+02   6.2311000e+01   2.1800000e+00
   2.2177249e+03   9.3511000e+01   1.7677300e+02   6.1914000e+01   2.1750000e+00
   2.2178772e+03   9.3484000e+01   1.7655400e+02   6.2406000e+01   2.1730000e+00
   2.2180295e+03   9.3416000e+01   1.7613200e+02   6.3572000e+01   2.1760000e+00
   2.2181821e+03   9.3376000e+01   1.7584900e+02   6.3067000e+01   2.1780000e+00
   2.2183345e+03   9.3477000e+01   1.7561900e+02   6.1811000e+01   2.1790000e+00
   2.2184868e+03   9.3651000e+01   1.7567400e+02   6.1381000e+01   2.1810000e+00
   2.2186392e+03   9.3818000e+01   1.7600000e+02   6.3140000e+01   2.1820000e+00
   2.2187917e+03   9.3664000e+01   1.7671600e+02   6.5340000e+01   2.1830000e+00
   2.2189441e+03   9.3510000e+01   1.7741900e+02   6.2084000e+01   2.1860000e+00
   2.2190964e+03   9.3459000e+01   1.7795700e+02   5.9079000e+01   2.1880000e+00
   2.2192488e+03   9.3490000e+01   1.7829300e+02   6.0996000e+01   2.1850000e+00
   2.2194011e+03   9.3510000e+01   1.7833900e+02   6.1000000e+01   2.1810000e+00
   2.2195537e+03   9.3492000e+01   1.7812900e+02   6.0662000e+01   2.1770000e+00
   2.2197061e+03   9.3472000e+01   1.7782400e+02   6.0389000e+01   2.1720000e+00
   2.2198584e+03   9.3489000e+01   1.7794600e+02   5.7974000e+01   2.1720000e+00
   2.2200107e+03   9.3529000e+01   1.7858300e+02   5.9576000e+01   2.1760000e+00
   2.2201633e+03   9.3600000e+01   1.7900500e+02   5.9487000e+01   2.1800000e+00
   2.2203157e+03   9.3704000e+01   1.7941900e+02   5.9462000e+01   2.1810000e+00
   2.2204680e+03   9.3861000e+01   1.8047400e+02   6.1988000e+01   2.1810000e+00
   2.2206204e+03   9.4041000e+01   1.8191700e+02   6.3483000e+01   2.1810000e+00
