~Version Information Section
VERS. 2.0 : CWLS Log ASCII Standard - VERSION 2.0
WRAP. NO  : One Line per depth Step
~Well Information Section
#MNEM.UNIT                     Data                         Information
#----------   ------------------------------------------   ----------------
STRT.M                             1360.0000 : Start Depth
STOP.M                            2763.0000 : Stop Depth
NULL.        -999.25                        : Null Value
COMP.UPDATED NORSKHYDR                      : Company Name
WELL.        WELL-1                        : Well
FLD .        GLITNE                          : Field
LOC .        META                           : Location
PROV.                                       : Province
CNTY.                                       : County
STAT.        META                           : State/Province
CTRY.        NORWAY                         : Nation
SRVC.        30                             : Logging Company Code
DATE.        11-20-XXXX                    : Run Date
UWI .        WELL0001                       : Unique Well Identifier
API .                                       : API Number
~Parameter Information Block
#MNEM.UNIT       Value                            Description
#---------       ---------                        -------------
~Curve Information Section
#MNEM.UNIT    API CODE                      : Curve description
#---.-----    --------                      : -----------------
DEPT .M                                      : 
Vp   .KM/S                                   : Vp
RHOB .G/C3                                   : Bulk Density
GR   .GAPI                                   : Gamma Ray
~Ascii
# ...
    1728.62500        2.12736        2.08240       33.50000
    1728.75000        2.13911        2.07660       33.61030
    1728.87500        2.17347        2.06490       33.37410
    1729.00000        2.20901        2.07290       32.90470
    1729.12500        2.22222        2.07960       34.31450
    1729.25000        2.22279        2.08600       35.52790
    1729.37500        2.22156        2.09170       36.07070
    1729.50000        2.21219        2.09460       35.84640
    1729.62500        2.20023        2.08820       35.63550
    1729.75000        2.20018        2.08480       36.66510
    1729.87500        2.21823        2.07340       38.33110
    1730.00000        2.23514        2.06560       36.81890
    1730.12500        2.22824        2.06400       35.48500
    1730.25000        2.23291        2.06350       34.42840
    1730.37500        2.26653        2.07630       34.26200
    1730.50000        2.27869        2.07400       38.15800
    1730.62500        2.26012        2.07740       37.46180
    1730.75000        2.25307        2.08200       36.53600
    1730.87500        2.24133        2.08370       34.11380
    1731.00000        2.22290        2.09170       32.31240
    1731.12500        2.20547        2.08550       33.93580
    1731.25000        2.19407        2.08400       32.75680
    1731.37500        2.17995        2.08920       34.21860
    1731.50000        2.17201        2.09570       33.08010
    1731.62500        2.18301        2.09520       31.75430
    1731.75000        2.21124        2.09040       31.64690
    1731.87500        2.23067        2.08560       30.48820
    1732.00000        2.20913        2.08400       32.17980
    1732.12500        2.21250        2.07890       34.07450
    1732.25000        2.22052        2.06920       35.84620
    1732.37500        2.19459        2.06430       36.96980
    1732.50000        2.12425        2.05310       36.95570
    1732.62500        2.12576        2.05970       35.69980
    1732.75000        2.09706        2.06450       37.18950
    1732.87500        2.07954        2.05940       38.05780
    1733.00000        2.09649        2.03710       39.49860
    1733.12500        2.13927        1.96420       40.63670
    1733.25000        2.16152        1.81580       37.95220
    1733.37500        2.15681        1.72060       36.72190
    1733.50000        2.12814        1.69490       36.12190
    1733.62500        2.09870        1.74490       38.06100
    1733.75000        2.07126        1.87700       41.39290
    1733.87500        2.05010        2.00760       43.87310
    1734.00000        2.06720        2.04700       43.66800
    1734.12500        2.09290        2.05950       41.28850
    1734.25000        2.12524        2.06320       37.36750
    1734.37500        2.14739        2.06160       34.66500
    1734.50000        2.13291        2.06800       34.12950
    1734.62500        2.06815        2.07440       34.79310
    1734.75000        2.09437        2.08200       36.86930
    1734.87500        2.12384        2.08510       37.03560
    1735.00000        2.14390        2.08220       38.64130
    1735.12500        2.16689        2.07500       41.33830
    1735.25000        2.17758        2.05740       43.64980
    1735.37500        2.08152        2.04790       44.11120
    1735.50000        2.13973        2.04290       40.49520
    1735.62500        2.17253        2.04820       38.52340
    1735.75000        2.16524        2.06310       37.33010
    1735.87500        2.13790        2.06630       37.14520
    1736.00000        2.12602        2.07420       38.47980
    1736.12500        2.14752        2.06900       36.58310
    1736.25000        2.13007        2.06620       36.56770
    1736.37500        2.08038        2.06690       35.56530
    1736.50000        2.06046        2.06250       33.43050
    1736.62500        2.09723        2.06250       30.41910
    1736.75000        2.14257        2.04990       26.43340
    1736.87500        2.18191        2.03550       22.75450
    1737.00000        2.22010        2.02320       22.46580
    1737.12500        2.22491        2.01840       24.13300
    1737.25000        2.19518        2.03120       27.08180
    1737.37500        2.14959        2.04720       31.07420
    1737.50000        2.09801        2.06200       35.58540
    1737.62500        2.05268        2.06840       36.26220
    1737.75000        2.02931        2.07430       37.37490
    1737.87500        2.01808        2.09140       36.95420
    1738.00000        2.01023        2.10420       35.72360
    1738.12500        2.00378        2.10260       38.84060
    1738.25000        2.01056        2.09720       37.43080
    1738.37500        2.01078        2.09300       37.89920
    1738.50000        2.01182        2.09370       37.81570
    1738.62500        2.01154        2.10140       37.28430
    1738.75000        2.00751        2.09500       37.33590
    1738.87500        2.01159        2.09250       38.13050
    1739.00000        2.01062        2.09180       38.82990
    1739.12500        2.00830        2.09060       39.55830
    1739.25000        2.00426        2.08720       39.69890
    1739.37500        2.00106        2.08240       39.14250
    1739.50000        2.00382        2.07910       38.46130
    1739.62500        2.00788        2.07810       38.92260
    1739.75000        2.01196        2.07970       38.55200
    1739.87500        2.01522        2.08250       38.24950
    1740.00000        2.01311        2.08420       38.56000
    1740.12500        2.00550        2.08900       39.49590
    1740.25000        2.00685        2.08720       40.00850
    1740.37500        2.00562        2.08400       40.69260
    1740.50000        2.00826        2.08270       40.30880
    1740.62500        2.01233        2.08450       39.83150
    1740.75000        2.01643        2.08770       40.17610
    1740.87500        2.02011        2.08480       41.88300
    1741.00000        2.01874        2.07340       44.36920
    1741.12500        2.01384        2.06560       44.76280
    1741.25000        2.01188        2.06490       44.58430
    1741.37500        2.00902        2.06650       43.90970
    1741.50000        2.00389        2.06810       43.32580
    1741.62500        2.00524        2.06970       45.09440
    1741.75000        2.00793        2.07030       43.66410
    1741.87500        2.00960        2.07170       41.23830
    1742.00000        2.01244        2.07200       39.38630
    1742.12500        2.01654        2.06070       38.44160
    1742.25000        2.02036        2.05740       37.98370
    1742.37500        2.02173        2.05420       38.41940
    1742.50000        2.02801        2.05530       40.19610
    1742.62500        2.03309        2.05810       40.02250
    1742.75000        2.04040        2.05700       39.13690
    1742.87500        2.04843        2.06020       38.49950
    1743.00000        2.04457        2.06340       37.29020
    1743.12500        1.94301        2.06550       38.18730
    1743.25000        1.92697        2.06280       37.92910
    1743.37500        1.92554        2.05660       37.68750
    1743.50000        1.92590        2.05680       37.25410
    1743.62500        1.94656        2.07770       36.21820
    1743.75000        2.02340        2.09220       36.44890
    1743.87500        2.09435        2.09950       36.65610
    1744.00000        2.18808        2.09760       37.05700
    1744.12500        2.21586        2.08790       38.36080
    1744.25000        2.16767        2.08790       38.87640
    1744.37500        2.15273        2.09230       34.58590
    1744.50000        2.11747        2.10490       32.68910
    1744.62500        2.11117        2.11710       28.40260
    1744.75000        2.13660        2.12550       25.60950
    1744.87500        2.20502        2.13410       23.41080
    1745.00000        2.29627        2.11480       20.59370
    1745.12500        2.25790        2.10090       21.08070
    1745.25000        2.24606        2.08320       21.06110
