~Version Information Section
VERS. 2.0 : CWLS Log ASCII Standard - VERSION 2.0
WRAP. NO  : One Line per depth Step
~Well Information Section
#MNEM.UNIT                     Data                         Information
#----------   ------------------------------------------   ----------------
STRT.M                             200.0000 : Start Depth
STOP.M                            5021.0000 : Stop Depth
NULL.        -9999.00000                        : Null Value
COMP.UPDATED NORSKHYDR                      : Company Name
WELL.        WELL-3                        : Well
FLD .        GLITNE                          : Field
LOC .        META                           : Location
PROV.                                       : Province
CNTY.                                       : County
STAT.        META                           : State/Province
CTRY.        NORWAY                      : Nation
SRVC.        30                             : Logging Company Code
DATE.        10-20-XXXX                    : Run Date
UWI .        WELL0003                       : Unique Well Identifier
API .                                       : API Number
~Parameter Information Block
#MNEM.UNIT       Value                            Description
#---------       ---------                        -------------
~Curve Information Section
#MNEM.UNIT    API CODE                      : Curve description
#---.-----    --------                      : -----------------
DEPT .m                                      : 
Vp   .km/s                                   : Vp(in Km/s)
RHOB .G/C3                                   : Bulk Density
GR   .GAPI                                   : Gamma Ray
~Ascii
# ...
    2752.85010        4.41739        2.60580       24.53130
    2753.00244        4.10851        2.61370       24.65620
    2753.15479        3.93952        2.59880       30.44380
    2753.30713        3.70051        2.58090       33.77590
    2753.45972        3.73701        2.57990       36.43750
    2753.61206        3.87048        2.59390       32.03130
    2753.76440        3.92026        2.61000       33.50000
    2753.91675        4.06376        2.61770       37.74320
    2754.06909        3.57013        2.58590       43.06250
    2754.22168        3.65577        2.52610       42.37500
    2754.37402        3.71707        2.48860       34.06250
    2754.52637        3.83980        2.49040       26.73050
    2754.67871        3.99058        2.52150       25.56440
    2754.83130        3.94883        2.53670       30.32810
    2754.98364        3.69175        2.51550       34.34370
    2755.13599        3.70014        2.48800       30.03820
    2755.28833        3.83977        2.46690       25.91290
    2755.44092        4.10851        2.48180       21.14060
    2755.59326        4.44558        2.52680       24.57810
    2755.74561        4.17534        2.56370       27.96880
    2755.89795        3.95844        2.58240       34.81250
    2756.05029        3.85815        2.59020       33.53150
    2756.20288        3.81000        2.60790       33.71870
    2756.35522        3.95844        2.62260       29.01560
    2756.50757        3.85823        2.62070       29.51560
    2756.65991        3.98106        2.61280       29.32810
    2756.81250        4.17525        2.61150       27.87510
    2756.96484        4.11892        2.61250       27.93750
    2757.11719        3.94883        2.61120       30.73440
    2757.26953        3.84000        2.60730       34.15630
    2757.42212        3.72893        2.59900       28.04940
    2757.57446        4.06400        2.59230       19.89060
    2757.72681        4.33108        2.58950       17.23440
    2757.87915        4.74859        2.59710       18.59380
    2758.03149        4.56535        2.60930       19.95190
    2758.18408        4.04378        2.61210       19.15630
    2758.33643        3.68338        2.59540       25.26560
    2758.48877        3.87048        2.55840       27.26560
    2758.64111        3.90769        2.53260       25.28120
    2758.79370        4.09708        2.53090       19.85400
    2758.94604        3.52116        2.54860       16.48440
    2759.09839        4.03375        2.56330       19.96880
    2759.25073        3.77461        2.57690       24.09380
    2759.40332        3.87994        2.57540       29.51110
    2759.55566        4.02376        2.54260       26.70310
    2759.70801        4.61818        2.54850       21.89060
    2759.86035        4.99672        2.57920       15.07030
    2760.01270        5.04773        2.62410       23.91160
    2760.16528        4.63574        2.64610       27.26560
    2760.31763        4.16465        2.64030       34.84380
    2760.46997        3.72844        2.61310       32.25000
    2760.62231        3.65589        2.59450       32.37480
    2760.77490        3.92026        2.59300       34.34370
    2760.92725        3.89832        2.60390       34.90630
    2761.07959        3.87971        2.61600       37.50000
    2761.23193        3.97119        2.61680       39.46560
    2761.38452        3.84000        2.61130       44.31250
    2761.53687        3.76296        2.60310       46.34380
    2761.68921        3.84000        2.58850       43.03130
    2761.84155        4.00066        2.57810       40.96880
    2761.99390        3.88900        2.56990       40.50000
    2762.14648        3.72844        2.57600       41.31250
    2762.29883        3.87971        2.58250       37.96880
    2762.45117        3.79222        2.57240       43.28120
    2762.60352        3.85812        2.55760       45.12200
    2762.75610        4.40542        2.53690       45.06250
    2762.90845        4.64900        2.53390       40.31250
    2763.06079        4.66233        2.54460       36.28130
    2763.21313        4.56644        2.58130       34.84600
    2763.36548        4.35429        2.60220       39.56250
    2763.51807        4.07759        2.62060       38.93750
    2763.67041        4.00066        2.61570       42.06250
    2763.82275        4.08785        2.60710       35.87500
    2763.97510        4.20052        2.60730       38.50000
    2764.12769        4.24808        2.61680       36.09380
    2764.28003        3.93926        2.62180       41.53120
    2764.43237        3.70859        2.60280       39.43750
    2764.58472        3.62063        2.55110       40.15510
    2764.73730        3.82194        2.50700       34.81250
    2764.88965        4.21140        2.48270       30.75000
    2765.04199        4.21140        2.51910       27.42190
    2765.19434        4.10867        2.56600       30.97870
    2765.34668        4.17534        2.60700       34.40630
    2765.49927        3.79222        2.61700       38.46880
    2765.65161        3.68338        2.61040       36.25000
    2765.80396        3.75427        2.58730       36.21870
    2765.95630        3.66438        2.55060       32.02690
    2766.10889        3.90737        2.50320       29.35150
    2766.26123        3.71707        2.43760       34.21880
    2766.41357        3.66401        2.40940       38.50000
    2766.56592        3.87971        2.42350       42.06250
    2766.71851        3.83117        2.46420       35.11940
    2766.87085        3.97155        2.51570       31.60370
    2767.02319        4.10851        2.54630       28.07810
    2767.17554        3.97134        2.56530       28.75000
    2767.32788        3.71740        2.57990       26.65840
    2767.48047        3.92973        2.59190       28.00750
    2767.63281        3.92973        2.59970       32.65630
    2767.78516        4.01053        2.58630       33.37500
    2767.93750        4.04368        2.58110       31.40220
    2768.09009        3.98118        2.58630       28.90630
    2768.24243        4.05386        2.60960       28.92190
    2768.39478        3.97134        2.64330       30.18750
    2768.54712        3.89832        2.66010       30.75000
    2768.69971        3.89832        2.66090       34.09600
    2768.85205        3.89834        2.65830       35.49890
    2769.00439        3.90769        2.64390       34.84380
    2769.15674        3.93926        2.62700       36.18750
    2769.30908        3.95859        2.60990       38.21560
    2769.46167        4.05375        2.60310       36.25150
    2769.61401        3.98106        2.61260       37.18750
    2769.76636        3.89832        2.63080       35.87500
    2769.91870        3.93918        2.65400       37.27960
    2770.07129        3.88920        2.65430       36.24330
    2770.22363        4.02376        2.64640       32.06250
    2770.37598        4.17534        2.64690       33.28130
    2770.52832        4.29296        2.64670       28.71870
    2770.68091        4.20052        2.63080       28.71870
    2770.83325        4.25921        2.58900       23.23440
    2770.98560        4.20052        2.54060       23.95310
    2771.13794        4.02376        2.54830       26.14060
    2771.29028        3.87048        2.57390       32.40630
    2771.44287        3.85823        2.59960       32.31250
    2771.59521        4.09815        2.59900       26.73440
    2771.74756        4.39351        2.59980       22.51560
    2771.89990        4.54902        2.60270       22.54110
    2772.05249        4.40542        2.59430       28.67190
    2772.20483        4.15400        2.56920       30.84380
    2772.35718        3.93926        2.56380       30.10940
    2772.50952        3.92973        2.56720       28.15630
    2772.66211        4.18969        2.58240       27.45310
    2772.81445        4.27040        2.59340       27.51560
    2772.96680        4.40542        2.62020       22.67190
    2773.11914        4.29296        2.62900       24.00000
