~Version Information Section
VERS. 2.0 : CWLS Log ASCII Standard - VERSION 2.0
WRAP. NO  : One Line per depth Step
~Well Information Section
#MNEM.UNIT                     Data                         Information
#----------   ------------------------------------------   ----------------
STRT.M                             200.0000 : Start Depth
STOP.M                            5021.0000 : Stop Depth
NULL.        -9999.00000                        : Null Value
COMP.UPDATED NORSKHYDR                      : Company Name
WELL.        WELL-3                        : Well
FLD .        GLITNE                          : Field
LOC .        META                           : Location
PROV.                                       : Province
CNTY.                                       : County
STAT.        META                           : State/Province
CTRY.        NORWAY                      : Nation
SRVC.        30                             : Logging Company Code
DATE.        10-20-XXXX                    : Run Date
UWI .        WELL0003                       : Unique Well Identifier
API .                                       : API Number
~Parameter Information Block
#MNEM.UNIT       Value                            Description
#---------       ---------                        -------------
~Curve Information Section
#MNEM.UNIT    API CODE                      : Curve description
#---.-----    --------                      : -----------------
DEPT .m                                      : 
Vp   .km/s                                   : Vp(in Km/s)
RHOB .G/C3                                   : Bulk Density
GR   .GAPI                                   : Gamma Ray
~Ascii
     200.14999        1.79558    -9999.00000       62.03120
     200.30240        1.82515    -9999.00000       62.93750
     200.45480        1.86422    -9999.00000       63.84380
     200.60719        1.88877    -9999.00000       63.46880
     200.75960        1.88877    -9999.00000       62.84380
     200.91200        1.88439    -9999.00000       59.34370
     201.06441        1.87569    -9999.00000       61.75000
     201.21680        1.87569    -9999.00000       64.18750
     201.36920        1.88003    -9999.00000       63.43750
     201.52161        1.88439    -9999.00000       57.65620
     201.67400        1.87714    -9999.00000       55.46870
     201.82640        1.86994    -9999.00000       62.37500
     201.97881        1.85854    -9999.00000       63.50000
     202.13120        1.85289    -9999.00000       61.18750
     202.28360        1.85712    -9999.00000       54.56250
     202.43600        1.84727    -9999.00000       55.53130
     202.58839        1.85289    -9999.00000       57.81250
     202.74080        1.86422    -9999.00000       61.68750
     202.89320        1.86422    -9999.00000       67.37500
     203.04559        1.86851    -9999.00000       64.00000
     203.19800        1.87281    -9999.00000       60.15620
     203.35040        1.86565    -9999.00000       52.00000
     203.50281        1.86565    -9999.00000       60.25000
     203.65520        1.86422    -9999.00000       61.90630
     203.80760        1.86137    -9999.00000       69.31250
     203.96001        1.86851    -9999.00000       67.18750
     204.11240        1.86565    -9999.00000       62.25000
     204.26480        1.86994    -9999.00000       59.56250
     204.41721        1.86851    -9999.00000       59.12500
     204.56960        1.86994    -9999.00000       68.62500
     204.72200        1.86851    -9999.00000       67.62500
     204.87440        1.86565    -9999.00000       64.31250
     205.02679        1.86851    -9999.00000       62.46870
     205.17920        1.86851    -9999.00000       62.53130
     205.33160        1.86994    -9999.00000       68.93750
     205.48399        1.87281    -9999.00000       63.84380
     205.63640        1.87281    -9999.00000       66.25000
     205.78880        1.87714    -9999.00000       60.75000
     205.94119        1.87714    -9999.00000       63.71870
     206.09360        1.88003    -9999.00000       65.06250
     206.24600        1.88003    -9999.00000       67.93750
     206.39841        1.88731    -9999.00000       66.43750
     206.55080        1.88148    -9999.00000       64.12500
     206.70320        1.88003    -9999.00000       63.65630
     206.85561        1.88731    -9999.00000       64.75000
     207.00800        1.88148    -9999.00000       65.18750
     207.16040        1.88148    -9999.00000       61.90630
     207.31281        1.88731    -9999.00000       67.00000
     207.46519        1.88148    -9999.00000       65.56250
     207.61760        1.88439    -9999.00000       67.37500
     207.77000        1.88439    -9999.00000       64.12500
     207.92239        1.86851    -9999.00000       64.62500
     208.07480        1.87281    -9999.00000       62.12500
     208.22720        1.87281    -9999.00000       60.71880
     208.37959        1.87714    -9999.00000       58.15630
     208.53200        1.88003    -9999.00000       59.28130
     208.68440        1.88439    -9999.00000       56.75000
     208.83681        1.88148    -9999.00000       61.46880
     208.98920        1.88148    -9999.00000       65.31250
     209.14160        1.88731    -9999.00000       69.56250
     209.29401        1.89317    -9999.00000       63.65630
     209.44640        1.89170    -9999.00000       60.50000
     209.59880        1.89611    -9999.00000       60.12500
     209.75121        1.89170    -9999.00000       61.03130
     209.90359        1.88877    -9999.00000       61.71870
     210.05600        1.87714    -9999.00000       63.56250
     210.20840        1.87569    -9999.00000       64.87500
     210.36079        1.87714    -9999.00000       64.00000
     210.51320        1.88003    -9999.00000       64.56250
     210.66560        1.88439    -9999.00000       65.00000
     210.81799        1.88148    -9999.00000       65.12500
     210.97040        1.87714    -9999.00000       63.34380
     211.12280        1.87281    -9999.00000       63.03130
     211.27521        1.87281    -9999.00000       65.50000
     211.42760        1.86994    -9999.00000       64.50000
     211.58000        1.86565    -9999.00000       67.25000
     211.73241        1.86851    -9999.00000       63.78130
     211.88480        1.86994    -9999.00000       57.53130
     212.03720        1.87281    -9999.00000       53.25000
     212.18961        1.87281    -9999.00000       54.00000
     212.34200        1.88003    -9999.00000       57.71880
     212.49440        1.87714    -9999.00000       59.18750
     212.64680        1.87714    -9999.00000       58.00000
     212.79919        1.88439    -9999.00000       56.56250
     212.95160        1.87714    -9999.00000       59.78130
     213.10400        1.87569    -9999.00000       63.18750
     213.25639        1.87714    -9999.00000       66.06250
     213.40880        1.88148    -9999.00000       60.37500
     213.56120        1.88731    -9999.00000       57.56250
     213.71359        1.89907    -9999.00000       55.40630
     213.86600        1.90055    -9999.00000       57.81250
     214.01840        1.89611    -9999.00000       58.53130
     214.17081        1.89170    -9999.00000       58.34380
     214.32320        1.88439    -9999.00000       57.81250
     214.47560        1.87281    -9999.00000       58.31250
     214.62801        1.88003    -9999.00000       55.96880
     214.78040        1.89611    -9999.00000       58.12500
     214.93280        1.91097    -9999.00000       58.78130
     215.08521        1.91097    -9999.00000       62.40630
     215.23759        1.90055    -9999.00000       59.71880
     215.39000        1.89317    -9999.00000       55.78120
     215.54240        1.89317    -9999.00000       53.15630
     215.69479        1.88439    -9999.00000       52.90630
     215.84720        1.88003    -9999.00000       56.43750
     215.99960        1.89170    -9999.00000       58.18750
     216.15199        1.91247    -9999.00000       59.56250
     216.30440        1.91247    -9999.00000       59.03120
     216.45680        1.92911    -9999.00000       58.15630
     216.60921        1.96013    -9999.00000       58.21880
     216.76160        1.99869    -9999.00000       56.65630
     216.91400        2.00362    -9999.00000       60.46870
     217.06641        1.98567    -9999.00000       58.43750
     217.21880        1.92303    -9999.00000       60.59370
     217.37120        1.90055    -9999.00000       60.71880
     217.52361        1.89611    -9999.00000       66.37500
     217.67599        1.89611    -9999.00000       67.50000
     217.82840        1.88877    -9999.00000       68.75000
     217.98080        1.89170    -9999.00000       66.43750
     218.13319        1.89611    -9999.00000       65.93750
     218.28560        1.89317    -9999.00000       61.31250
     218.43800        1.89317    -9999.00000       60.06250
     218.59039        1.88877    -9999.00000       55.93750
     218.74280        1.89907    -9999.00000       58.59370
     218.89520        1.89907    -9999.00000       59.40630
     219.04761        1.91247    -9999.00000       63.96880
     219.20000        1.92303    -9999.00000       65.37500
     219.35240        1.90798    -9999.00000       63.84380
     219.50481        1.91247    -9999.00000       59.87500
     219.65720        1.89317    -9999.00000       55.84380
     219.80960        1.88439    -9999.00000       55.50000
     219.96201        1.89170    -9999.00000       59.18750
     220.11440        1.90798    -9999.00000       54.65620
     220.26680        1.92455    -9999.00000       51.87500
     220.41920        1.95385    -9999.00000       44.56250
