~Version Information Section
VERS. 2.0 : CWLS Log ASCII Standard - VERSION 2.0
WRAP. NO  : One Line per depth Step
~Well Information Section
#MNEM.UNIT                     Data                         Information
#----------   ------------------------------------------   ----------------
STRT.M                             1360.0000 : Start Depth
STOP.M                            2763.0000 : Stop Depth
NULL.        -999.25                        : Null Value
COMP.UPDATED NORSKHYDR                      : Company Name
WELL.        WELL-1                        : Well
FLD .        GLITNE                          : Field
LOC .        META                           : Location
PROV.                                       : Province
CNTY.                                       : County
STAT.        META                           : State/Province
CTRY.        NORWAY                         : Nation
SRVC.        30                             : Logging Company Code
DATE.        11-20-XXXX                    : Run Date
UWI .        WELL0001                       : Unique Well Identifier
API .                                       : API Number
~Parameter Information Block
#MNEM.UNIT       Value                            Description
#---------       ---------                        -------------
~Curve Information Section
#MNEM.UNIT    API CODE                      : Curve description
#---.-----    --------                      : -----------------
DEPT .M                                      : 
Vp   .KM/S                                   : Vp
RHOB .G/C3                                   : Bulk Density
GR   .GAPI                                   : Gamma Ray
~Ascii
# ...
    1544.37500        2.16822        2.19110       51.69620
    1544.50000        2.16444        2.16240       53.29560
    1544.62500        2.15979        2.17010       55.22320
    1544.75000        2.15979        2.17330       57.15680
    1544.87500        2.15979        2.17250       57.49000
    1545.00000        2.15220        2.16790       55.78450
    1545.12500        2.14328        2.16800       54.17000
    1545.25000        2.14963        2.17580       53.42390
    1545.37500        2.16510        2.17580       54.11080
    1545.50000        2.16895        2.16960       56.27560
    1545.62500        2.16422        2.15840       57.55720
    1545.75000        2.16500        2.15060       59.10750
    1545.87500        2.15322        2.14940       57.84400
    1546.00000        2.14203        2.15160       55.54440
    1546.12500        2.15121        2.14360       53.48140
    1546.25000        2.20058        2.13980       50.07240
    1546.37500        2.20561        2.13550       49.80690
    1546.50000        2.23771        2.13630       50.42800
    1546.62500        2.27498        2.14220       51.58580
    1546.75000        2.29219        2.14060       52.24770
    1546.87500        2.28117        2.12790       51.26360
    1547.00000        2.31853        2.11630       48.52110
    1547.12500        2.36050        2.10600       47.88040
    1547.25000        2.39122        2.11370       46.61390
    1547.37500        2.35969        2.15120       45.31550
    1547.50000        2.27465        2.15760       43.98210
    1547.62500        2.21520        2.16250       41.29620
    1547.75000        2.15421        2.15310       41.91140
    1547.87500        2.34701        2.13930       42.81550
    1548.00000        2.44542        2.12420       40.92090
    1548.12500        2.36770        2.09790       37.26260
    1548.25000        2.21176        2.10910       34.20810
    1548.37500        1.97517        2.14480       32.01660
    1548.50000        1.83964        2.23240       37.36790
    1548.62500        1.84540        2.26280       41.54740
    1548.75000        2.00390        2.13280       45.91160
    1548.87500        2.22505        1.97340       50.09350
    1549.00000        2.20386        1.85860       51.24960
    1549.12500        2.18764        1.86480       52.45420
    1549.25000        2.13787        1.95220       51.07760
    1549.37500        2.11574        2.06220       49.76220
    1549.50000        2.11602        2.13700       48.63220
    1549.62500        2.11824        2.14180       47.54930
    1549.75000        2.11673        2.07730       48.01070
    1549.87500        2.14735        2.00470       45.16560
    1550.00000        2.16174        1.95340       45.50740
    1550.12500        2.15823        1.94220       45.30900
    1550.25000        2.15394        1.99190       45.34490
    1550.37500        2.17308        2.04920       49.39010
    1550.50000        2.19554        2.09270       49.18510
    1550.62500        2.21280        2.11790       50.83050
    1550.75000        2.22512        2.13030       48.79060
    1550.87500        2.23375        2.14100       45.66480
    1551.00000        2.24185        2.14580       43.69750
    1551.12500        2.25545        2.14790       40.03210
    1551.25000        2.26752        2.15050       42.41190
    1551.37500        2.27703        2.15500       44.07640
    1551.50000        2.27816        2.16210       46.01620
    1551.62500        2.27633        2.17170       48.72480
    1551.75000        2.27546        2.17190       51.61150
    1551.87500        2.22438        2.17550       50.30430
    1552.00000        2.19694        2.17510       49.33800
    1552.12500        2.18458        2.16980       46.19120
    1552.25000        2.16820        2.16320       43.64840
    1552.37500        2.14364        2.15520       43.85280
    1552.50000        2.13144        2.13870       46.19460
    1552.62500        2.12839        2.12110       46.91230
    1552.75000        2.11935        2.10630       48.31920
    1552.87500        2.10883        2.09880       48.94140
    1553.00000        2.09580        2.10370       49.28130
    1553.12500        2.08113        2.11810       50.40410
    1553.25000        2.08551        2.11730       51.32690
    1553.37500        2.09799        2.11160       50.82060
    1553.50000        2.10310        2.10570       51.76460
    1553.62500        2.10814        2.10090       52.43000
    1553.75000        2.12296        2.09610       52.60470
    1553.87500        2.15383        2.09280       54.37580
    1554.00000        2.14761        2.09620       53.55560
    1554.12500        2.14521        2.11030       52.67250
    1554.25000        2.12077        2.13100       50.31740
    1554.37500        2.09609        2.14640       46.50880
    1554.50000        2.09603        2.14480       42.88220
    1554.62500        2.10344        2.13800       44.29190
    1554.75000        2.10810        2.13280       46.71500
    1554.87500        2.14003        2.12240       50.38540
    1555.00000        2.14679        2.10070       51.92210
    1555.12500        2.11517        2.08310       51.08570
    1555.25000        2.08120        2.08810       50.59990
    1555.37500        2.09145        2.10600       48.26750
    1555.50000        2.09429        2.12680       47.94960
    1555.62500        2.10319        2.13930       47.82430
    1555.75000        2.16111        2.13480       48.05240
    1555.87500        2.28100        2.13480       48.25740
    1556.00000        2.35137        2.13610       45.46360
    1556.12500        2.37185        2.14070       43.36470
    1556.25000        2.40251        2.16400       39.59870
    1556.37500        2.34916        2.20970       35.95980
    1556.50000        2.25659        2.24500       33.09460
    1556.62500        2.23133        2.26780       31.14810
    1556.75000        2.19185        2.22070       34.81340
    1556.87500        2.13085        2.16380       37.47240
    1557.00000        2.10058        2.11990       40.62030
    1557.12500        2.09369        2.08190       42.71610
    1557.25000        2.09738        2.08030       43.69700
    1557.37500        2.10929        2.07870       47.23420
    1557.50000        2.11083        2.08650       48.27060
    1557.62500        2.13352        2.09860       48.79850
    1557.75000        2.13105        2.10910       48.45470
    1557.87500        2.09838        2.11710       47.62720
    1558.00000        2.05680        2.11560       46.94990
    1558.12500        2.02045        2.11770       46.00150
    1558.25000        2.02181        2.12360       44.91480
    1558.37500        2.04440        2.12620       45.57390
    1558.50000        2.05529        2.11740       46.75320
    1558.62500        2.05935        2.10300       47.40600
    1558.75000        2.11663        2.10010       47.45790
    1558.87500        2.11513        2.10400       44.22830
    1559.00000        2.12699        2.11330       42.50230
    1559.12500        2.23061        2.11220       42.92600
    1559.25000        2.36941        2.06780       44.15910
    1559.37500        2.43515        2.04220       43.79090
    1559.50000        2.51551        2.02940       38.71590
    1559.62500        2.55780        2.04690       31.43130
    1559.75000        2.59483        2.07440       25.30570
    1559.87500        2.62704        2.08190       21.66470
    1560.00000        2.69668        2.06750       19.99110
    1560.12500        2.88428        2.04420       18.19500
    1560.25000        2.85657        2.03600       17.09280
    1560.37500        2.95556        2.03830       15.74050
    1560.50000        3.03292        2.04470       15.33640
    1560.62500        3.03740        2.05090       15.11960
    1560.75000        2.96453        2.05250       14.53470
    1560.87500        2.81572        2.05670       15.50230
    1561.00000        2.56634        2.06640       15.82190
