~Version Information Section
VERS. 2.0 : CWLS Log ASCII Standard - VERSION 2.0
WRAP. NO  : One Line per depth Step
~Well Information Section
#MNEM.UNIT                     Data                         Information
#----------   ------------------------------------------   ----------------
STRT.M                             1993.0000 : Start Depth
STOP.M                            2191.0000 : Stop Depth
NULL.        -999.25                        : Null Value
COMP.UPDATED NORSKHYDR                      : Company Name
WELL.        WELL-4                        : Well
FLD .        GLITNE                         : Field
LOC .        META                           : Location
PROV.                                       : Province
CNTY.                                       : County
STAT.        META                           : State/Province
CTRY.        NORWAY                       : Nation
SRVC.        30                             : Logging Company Code
DATE.        10-20-XXXX                    : Run Date
UWI .        WELL0004                       : Unique Well Identifier
API .                                       : API Number
~Parameter Information Block
#MNEM.UNIT       Value                            Description
#---------       ---------                        -------------
~Curve Information Section
#MNEM.UNIT    API CODE                      : Curve description
#---.-----    --------                      : -----------------
DEPT .m                                      : 
Vp   .km/s                                   : Vp(in Km/s)
RHOB .G/C3                                   : Bulk Density
GR   .GAPI                                   : Gamma Ray
~Ascii
# ...
    2034.28406        2.33206        2.26820      100.44560
    2034.43640        2.33922        2.25860       97.75590
    2034.58875        2.36462        2.23540       96.14690
    2034.74121        2.32140        2.21390       97.46040
    2034.89355        2.32494        2.22080       97.73610
    2035.04602        2.33028        2.22600      101.45030
    2035.19836        2.27124        2.21210      100.01030
    2035.35083        2.27124        2.20490       99.39590
    2035.50317        2.34642        2.19490      100.60030
    2035.65564        2.30385        2.16090       98.35890
    2035.80798        2.27124        2.14290      101.24930
    2035.96045        2.27293        2.20150       98.61390
    2036.11279        2.29173        2.24780       98.62730
    2036.26526        2.34101        2.22400       99.65230
    2036.41760        2.34642        2.20260      100.10900
    2036.56995        2.32140        2.20640      101.55640
    2036.72241        2.33028        2.23940      100.46570
    2036.87476        2.30211        2.26210      100.79220
    2037.02722        2.24613        2.29580      105.10040
    2037.17957        2.29345        2.33180       97.76740
    2037.33203        2.35367        2.35390      100.09220
    2037.48438        2.33742        2.36920       93.30490
    2037.63684        2.35185        2.34220       98.89610
    2037.78918        2.36830        2.30510      101.58730
    2037.94165        2.30734        2.31190       98.48410
    2038.09399        2.30211        2.30940       96.51790
    2038.24646        2.34281        2.30760       98.68900
    2038.39880        2.31435        2.30630       98.24240
    2038.55115        2.31787        2.27480       99.67510
    2038.70361        2.31963        2.23240       97.38900
    2038.85596        2.27463        2.28740       98.29260
    2039.00842        2.29173        2.38250       96.69040
    2039.16077        2.27803        2.50070      101.86520
    2039.31323        2.26449        2.42620      102.60600
    2039.46558        2.25945        2.30420      101.24310
    2039.61804        2.31787        2.21190       97.25290
    2039.77039        2.31435        2.18590       99.90740
    2039.92285        2.30560        2.18780      101.97510
    2040.07520        2.29173        2.17880       99.51300
    2040.22754        2.23953        2.14810      100.11360
    2040.38000        2.24448        2.11810      101.82770
    2040.53235        2.24118        2.09300       99.16400
    2040.68481        2.15864        2.10370       98.69460
    2040.83716        2.21351        2.09820       92.20610
    2040.98962        2.27124        2.09060       94.88270
    2041.14197        2.27293        2.07930       94.59050
    2041.29443        2.28657        2.07580       94.71830
    2041.44678        2.23297        2.08380      105.51440
    2041.59924        2.33028        2.09550       99.78450
    2041.75159        2.46802        2.09400      101.88920
    2041.90405        2.63668        2.08410       99.48320
    2042.05640        2.58744        2.09630      102.24170
    2042.20874        2.68310        2.10610      104.64560
    2042.36121        2.44819        2.10350      110.81380
    2042.51355        2.30560        2.10650      122.33320
    2042.66602        2.46005        2.14300      126.62620
    2042.81836        2.49020        2.17410      122.81070
    2042.97083        2.53788        2.19080      121.65230
    2043.12317        2.69973        2.17070      120.97170
    2043.27563        3.00592        2.14770      116.98900
    2043.42798        3.07879        2.13290      118.88410
    2043.58044        2.83008        2.14550      123.30590
    2043.73279        2.96787        2.16440      131.65530
    2043.88525        2.80147        2.17290      128.95599
    2044.03760        3.08815        2.14940      127.19040
    2044.18994        3.53596        2.11860      110.77690
    2044.34241        3.82915        2.08970      108.63650
    2044.49475        3.14876        2.10210      116.57590
    2044.64722        3.26338        2.13930      137.42250
    2044.79956        2.72630        2.14260      152.43590
    2044.95203        2.46204        2.11340      169.82230
    2045.10437        2.49223        2.14840      171.74400
    2045.25684        2.51901        2.19510      173.17880
    2045.40918        2.59184        2.18440      166.10960
    2045.56165        2.58524        2.11950      158.42670
    2045.71399        3.00888        2.13490      157.16400
    2045.86646        3.20168        2.19410      153.73531
    2046.01880        3.19162        2.23850      151.21010
    2046.17114        3.04800        2.24800      153.96370
    2046.32361        3.14876        2.27690      157.77190
    2046.47595        2.68074        2.29820      162.28979
    2046.62842        2.69258        2.29670      170.72279
    2046.78076        2.66667        2.28170      167.49750
    2046.93323        2.57215        2.26760      137.75591
    2047.08557        3.22881        2.27540      116.94980
    2047.23804        3.48343        2.26240       97.03800
    2047.39038        3.46758        2.22040      100.29630
    2047.54285        3.25989        2.19350      106.89410
    2047.69519        2.79377        2.19740      115.02410
    2047.84766        2.43645        2.21440      121.98480
    2048.00000        2.43840        2.21420      130.73630
    2048.15234        2.42289        2.20960      124.14570
    2048.30469        2.23133        2.22580      131.84019
    2048.45728        2.29518        2.23190      122.87600
    2048.60962        2.32672        2.22550      126.72420
    2048.76196        2.30211        2.22750      118.02410
    2048.91431        2.50246        2.22500      116.87810
    2049.06689        2.01188        2.19820      119.40910
    2049.21924        2.09629        2.07200      121.31900
    2049.37158        2.16631        1.95650      125.02470
    2049.52393        2.18808        1.93140      121.70970
    2049.67651        2.19597        2.01040      114.90460
    2049.82886        2.19438        2.12820      112.54830
    2049.98120        2.20550        2.21270      111.77620
    2050.13354        2.24283        2.24330      107.63650
    2050.28589        2.22644        2.24330      107.60780
    2050.43848        2.20550        2.22980      104.80060
    2050.59082        2.20710        2.23290      108.58110
    2050.74316        2.24118        2.23990      105.12140
    2050.89551        2.30909        2.24400       94.03560
    2051.04810        2.40758        2.24730       94.17590
    2051.20044        2.36646        2.25920       97.49880
    2051.35278        2.36830        2.27550      100.89330
    2051.50513        2.26617        2.28140      103.79530
    2051.65771        2.28486        2.26790      102.81610
    2051.81006        2.31787        2.25070      101.50720
    2051.96240        2.32850        2.24590       97.33680
    2052.11475        2.27973        2.25170      103.28980
    2052.26709        2.24945        2.25560       97.91900
    2052.41968        2.26281        2.23890      100.53650
    2052.57202        2.29001        2.22950      100.08010
    2052.72437        2.28657        2.24420      104.24200
    2052.87671        2.20231        2.27140      103.75500
    2053.02930        2.43450        2.29010       96.41350
    2053.18164        2.59404        2.27820       96.70580
    2053.33398        2.70693        2.25460       78.96160
    2053.48633        2.66434        2.25780       82.11440
    2053.63892        2.54637        2.26510       91.44020
    2053.79126        2.30038        2.28030      107.74150
    2053.94360        2.24613        2.27000      110.73350
    2054.09595        2.31259        2.26600       97.31840
    2054.24829        2.29691        2.26450       97.14490
    2054.40088        2.39434        2.28250       97.71910
    2054.55322        2.37754        2.28800       97.09120
