~Version Information Section
VERS. 2.0 : CWLS Log ASCII Standard - VERSION 2.0
WRAP. NO  : One Line per depth Step
~Well Information Section
#MNEM.UNIT                     Data                         Information
#----------   ------------------------------------------   ----------------
STRT.M                             1360.0000 : Start Depth
STOP.M                            2763.0000 : Stop Depth
NULL.        -999.25                        : Null Value
COMP.UPDATED NORSKHYDR                      : Company Name
WELL.        WELL-1                        : Well
FLD .        GLITNE                          : Field
LOC .        META                           : Location
PROV.                                       : Province
CNTY.                                       : County
STAT.        META                           : State/Province
CTRY.        NORWAY                         : Nation
SRVC.        30                             : Logging Company Code
DATE.        11-20-XXXX                    : Run Date
UWI .        WELL0001                       : Unique Well Identifier
API .                                       : API Number
~Parameter Information Block
#MNEM.UNIT       Value                            Description
#---------       ---------                        -------------
~Curve Information Section
#MNEM.UNIT    API CODE                      : Curve description
#---.-----    --------                      : -----------------
DEPT .M                                      : 
Vp   .KM/S                                   : Vp
RHOB .G/C3                                   : Bulk Density
GR   .GAPI                                   : Gamma Ray
~Ascii
# ...
    1644.87500        2.34463        2.03040       23.94550
    1645.00000        2.37081        2.01600       26.04730
    1645.12500        2.38837        2.00390       25.03850
    1645.25000        2.37324        2.00120       25.45160
    1645.37500        2.36050        2.01120       25.23930
    1645.50000        2.35327        2.03040       24.31250
    1645.62500        2.33751        2.04660       24.29440
    1645.75000        2.42127        2.05200       24.06370
    1645.87500        2.36368        2.05030       23.95410
    1646.00000        2.34270        2.04640       23.43770
    1646.12500        2.35383        2.04470       22.68700
    1646.25000        2.36203        2.04150       22.18170
    1646.37500        2.35828        2.04100       22.61750
    1646.50000        2.36930        2.04200       21.97010
    1646.62500        2.36191        2.04360       21.46030
    1646.75000        2.36922        2.04430       20.23180
    1646.87500        2.39717        2.04110       19.18960
    1647.00000        2.43163        2.03470       19.72350
    1647.12500        2.45980        2.03320       19.03150
    1647.25000        2.49233        2.03410       19.38500
    1647.37500        2.49928        2.03570       18.30650
    1647.50000        2.47254        2.03810       17.28700
    1647.62500        2.41677        2.04770       17.40250
    1647.75000        2.34674        2.05310       17.85260
    1647.87500        2.33385        2.05680       17.17330
    1648.00000        2.32252        2.05430       17.54810
    1648.12500        2.32720        2.04390       17.45460
    1648.25000        2.34632        2.03110       17.68590
    1648.37500        2.36763        2.01670       19.30710
    1648.50000        2.36952        2.00160       19.38400
    1648.62500        2.36451        1.99600       18.16090
    1648.75000        2.36279        1.99740       16.16940
    1648.87500        2.37086        1.99930       14.87900
    1649.00000        2.38849        2.00890       15.25060
    1649.12500        2.40704        2.00830       17.32810
    1649.25000        2.40509        2.00450       20.27580
    1649.37500        2.36715        2.00270       23.37000
    1649.50000        2.33807        2.00600       26.65040
    1649.62500        2.29738        2.01410       30.37400
    1649.75000        2.22749        2.02700       34.44570
    1649.87500        2.18172        2.03980       37.41890
    1650.00000        2.17459        2.05830       39.11350
    1650.12500        2.17671        2.08320       40.70980
    1650.25000        2.19201        2.10770       42.89150
    1650.37500        2.20373        2.10930       45.00580
    1650.50000        2.18474        2.08980       45.27790
    1650.62500        2.24411        2.06780       42.79160
    1650.75000        2.25939        2.06630       39.71990
    1650.87500        2.26628        2.08910       37.95360
    1651.00000        2.29031        2.12070       36.73900
    1651.12500        2.32604        2.14470       35.23800
    1651.25000        2.29906        2.14170       34.34090
    1651.37500        2.30338        2.13270       32.55040
    1651.50000        2.28482        2.12110       31.98820
    1651.62500        2.25424        2.10760       30.48860
    1651.75000        2.23145        2.09800       28.64490
    1651.87500        2.23312        2.08220       28.57760
    1652.00000        2.23480        2.08050       27.20630
    1652.12500        2.23501        2.08200       28.71930
    1652.25000        2.27182        2.07910       32.02710
    1652.37500        2.32822        2.06830       38.22670
    1652.50000        2.37239        2.04580       46.63260
    1652.62500        2.37428        2.03600       52.78420
    1652.75000        2.31898        2.04680       53.01670
    1652.87500        2.26461        2.07180       52.02770
    1653.00000        2.21881        2.10500       51.05190
    1653.12500        2.19335        2.14820       50.81890
    1653.25000        2.19709        2.17710       51.43360
    1653.37500        2.21675        2.19350       51.66430
    1653.50000        2.20248        2.19300       49.26690
    1653.62500        2.20340        2.18550       46.83660
    1653.75000        2.20567        2.18480       45.16820
    1653.87500        2.18701        2.17840       44.72920
    1654.00000        2.13434        2.17770       45.82260
    1654.12500        2.17972        2.16900       47.64240
    1654.25000        2.20059        2.15770       48.55600
    1654.37500        2.21534        2.14540       47.67570
    1654.50000        2.23152        2.12470       46.73370
    1654.62500        2.24045        2.11190       47.06590
    1654.75000        2.19415        2.12100       44.09270
    1654.87500        2.16423        2.14290       41.99840
    1655.00000        2.16709        2.16660       37.28960
    1655.12500        2.19560        2.18000       32.56660
    1655.25000        2.24312        2.16880       28.97730
    1655.37500        2.30424        2.13830       25.51150
    1655.50000        2.33868        2.10400       25.11420
    1655.62500        2.33849        2.06170       23.91820
    1655.75000        2.33227        2.01720       24.23710
    1655.87500        2.32252        1.98730       24.22340
    1656.00000        2.30754        1.96810       22.48840
    1656.12500        2.29862        1.97220       22.87290
    1656.25000        2.31356        1.97510       22.40160
    1656.37500        2.32720        1.97300       22.60460
    1656.50000        2.34193        1.96970       23.27750
    1656.62500        2.35865        1.96970       24.29710
    1656.75000        2.37444        1.97200       25.49130
    1656.87500        2.37634        1.97090       24.56860
    1657.00000        2.36687        1.96350       24.26160
    1657.12500        2.35681        1.95510       22.72240
    1657.25000        2.35765        1.95540       21.67010
    1657.37500        2.37081        1.95940       21.88240
    1657.50000        2.37650        1.96200       20.28040
    1657.62500        2.38785        1.96140       21.18050
    1657.75000        2.39646        1.95760       21.25000
    1657.87500        2.39895        1.95280       21.30230
    1658.00000        2.39576        1.95120       21.70000
    1658.12500        2.39179        1.95670       22.32230
    1658.25000        2.40339        1.96410       22.56580
    1658.37500        2.41685        1.97430       22.84330
    1658.50000        2.43200        1.98270       22.04130
    1658.62500        2.43370        1.98380       21.19380
    1658.75000        2.41787        1.98780       20.69780
    1658.87500        2.40204        1.98470       19.33210
    1659.00000        2.36384        1.98980       21.69020
    1659.12500        2.34421        1.99830       22.94590
    1659.25000        2.33265        2.00750       24.23570
    1659.37500        2.32800        2.02340       24.78960
    1659.50000        2.33237        2.02510       23.61840
    1659.62500        2.34155        2.02030       23.09290
    1659.75000        2.34405        2.01580       25.28010
    1659.87500        2.30431        2.01540       27.60350
    1660.00000        2.24693        2.02140       32.00950
    1660.12500        2.19187        2.03580       37.59770
    1660.25000        2.14257        2.04000       39.77650
    1660.37500        2.08692        2.04880       44.05700
    1660.50000        2.06874        2.06000       45.03210
    1660.62500        2.06812        2.07370       45.50770
    1660.75000        2.07007        2.09430       45.23790
    1660.87500        2.07882        2.10870       43.35140
    1661.00000        2.16040        2.11790       40.83950
    1661.12500        2.20631        2.12110       40.15770
    1661.25000        2.26005        2.11810       40.14770
    1661.37500        2.29845        2.11030       39.91600
    1661.50000        2.28920        2.10390       39.68320
