~Version Information Section
VERS. 2.0 : CWLS Log ASCII Standard - VERSION 2.0
WRAP. NO  : One Line per depth Step
~Well Information Section
#MNEM.UNIT                     Data                         Information
#----------   ------------------------------------------   ----------------
STRT.M                             2100.0000 : Start Depth
STOP.M                            2300.0000 : Stop Depth
NULL.        -999.25                        : Null Value
COMP.UPDATED NORSKHYDR                      : Company Name
WELL.        WELL-5                        : Well
FLD .        GLITNE                         : Field
LOC .        META                           : Location
PROV.                                       : Province
CNTY.                                       : County
STAT.        META                           : State/Province
CTRY.        NORWAY                       : Nation
SRVC.        30                             : Logging Company Code
DATE.        10-20-XXXX                    : Run Date
UWI .        WELL0005                       : Unique Well Identifier
API .                                       : API Number
~Parameter Information Block
#MNEM.UNIT       Value                            Description
#---------       ---------                        -------------
~Curve Information Section
#MNEM.UNIT    API CODE                      : Curve description
#---.-----    --------                      : -----------------
DEPT .m                                      : 
Vp   .km/s                                   : Vp(in Km/s)
Vs   .km/s                                   : Vs(in km/s)
GR   .GAPI                                   : Gamma Ray
RHOB .G/C3                                   : Bulk Density
~Ascii
# ...
   2.1302473e+03   1.2859200e+02   3.6345300e+02   8.5860000e+01   2.3290000e+00
   2.1303997e+03   1.2832800e+02   3.6579600e+02   9.1119000e+01   2.3060000e+00
   2.1305520e+03   1.2769600e+02   3.6352900e+02   9.9887000e+01   2.2830000e+00
   2.1307043e+03   1.2680300e+02   3.5742900e+02   1.0650200e+02   2.2650000e+00
   2.1308569e+03   1.2649200e+02   3.4960700e+02   1.0965800e+02   2.2580000e+00
   2.1310093e+03   1.2713700e+02   3.4691800e+02   1.0604100e+02   2.2450000e+00
   2.1311616e+03   1.2790900e+02   3.4823400e+02   9.7506000e+01   2.1940000e+00
   2.1313140e+03   1.2829100e+02   3.4971000e+02   9.4242000e+01   2.1370000e+00
   2.1314663e+03   1.2851300e+02   3.5423100e+02   9.8720000e+01   2.1370000e+00
   2.1316189e+03   1.2908200e+02   3.5576200e+02   1.0217100e+02   2.1860000e+00
   2.1317712e+03   1.3033300e+02   3.5442500e+02   1.0461800e+02   2.2440000e+00
   2.1319236e+03   1.3158000e+02   3.5915600e+02   1.0761200e+02   2.2860000e+00
   2.1320759e+03   1.3231200e+02   3.6391500e+02   1.0578100e+02   2.2970000e+00
   2.1322285e+03   1.3257700e+02   3.6353600e+02   1.0096300e+02   2.2930000e+00
   2.1323809e+03   1.3213800e+02   3.5952400e+02   9.7906000e+01   2.2900000e+00
   2.1325332e+03   1.3083200e+02   3.5529900e+02   9.3662000e+01   2.2810000e+00
   2.1326855e+03   1.2824500e+02   3.5292500e+02   8.6952000e+01   2.2570000e+00
   2.1328381e+03   1.2614600e+02   3.5415800e+02   8.4957000e+01   2.2300000e+00
   2.1329905e+03   1.2504800e+02   3.5253000e+02   8.6912000e+01   2.2090000e+00
   2.1331428e+03   1.2464100e+02   3.4728600e+02   8.9692000e+01   2.1890000e+00
   2.1332952e+03   1.2450200e+02   3.4027700e+02   9.3234000e+01   2.1810000e+00
   2.1334475e+03   1.2442500e+02   3.3566300e+02   9.4700000e+01   2.2060000e+00
   2.1336001e+03   1.2465700e+02   3.3554300e+02   9.4940000e+01   2.2580000e+00
   2.1337524e+03   1.2536200e+02   3.4101900e+02   9.4322000e+01   2.2990000e+00
   2.1339048e+03   1.2678300e+02   3.4396500e+02   9.1404000e+01   2.3130000e+00
   2.1340571e+03   1.2802000e+02   3.4818000e+02   9.0654000e+01   2.3100000e+00
   2.1342097e+03   1.2858200e+02   3.4889000e+02   9.7045000e+01   2.3050000e+00
   2.1343621e+03   1.2859300e+02   3.4750000e+02   1.0333500e+02   2.3060000e+00
   2.1345144e+03   1.2819700e+02   3.4402400e+02   1.0263200e+02   2.3070000e+00
   2.1346667e+03   1.2745100e+02   3.3977300e+02   9.7097000e+01   2.3060000e+00
   2.1348193e+03   1.2620500e+02   3.3616600e+02   9.5344000e+01   2.3010000e+00
   2.1349717e+03   1.2524200e+02   3.3750500e+02   9.7482000e+01   2.2920000e+00
   2.1351240e+03   1.2481400e+02   3.4055000e+02   1.0085400e+02   2.2860000e+00
   2.1352764e+03   1.2479100e+02   3.4044100e+02   1.0492600e+02   2.2910000e+00
   2.1354287e+03   1.2475100e+02   3.3306300e+02   1.0383100e+02   2.2990000e+00
   2.1355813e+03   1.2490900e+02   3.2617100e+02   1.0107700e+02   2.2990000e+00
   2.1357336e+03   1.2513800e+02   3.2267100e+02   1.0164200e+02   2.2890000e+00
   2.1358860e+03   1.2559700e+02   3.2396600e+02   1.0356900e+02   2.2800000e+00
   2.1360383e+03   1.2546100e+02   3.2583700e+02   1.0132200e+02   2.2800000e+00
   2.1361909e+03   1.2515400e+02   3.2721600e+02   9.8073000e+01   2.2850000e+00
   2.1363433e+03   1.2491800e+02   3.2544300e+02   9.9129000e+01   2.2840000e+00
   2.1364956e+03   1.2490800e+02   3.2294000e+02   1.0196300e+02   2.2860000e+00
   2.1366479e+03   1.2501500e+02   3.2119600e+02   1.0475400e+02   2.2940000e+00
   2.1368005e+03   1.2500700e+02   3.2253100e+02   1.0663300e+02   2.2960000e+00
   2.1369529e+03   1.2481500e+02   3.2574700e+02   1.0583800e+02   2.2870000e+00
   2.1371052e+03   1.2453300e+02   3.2739100e+02   1.0028600e+02   2.2800000e+00
   2.1372576e+03   1.2434800e+02   3.2516700e+02   9.9088000e+01   2.2780000e+00
   2.1374099e+03   1.2430600e+02   3.2093300e+02   1.0426200e+02   2.2790000e+00
   2.1375625e+03   1.2435100e+02   3.1967700e+02   1.0680500e+02   2.2770000e+00
   2.1377148e+03   1.2436500e+02   3.2183200e+02   1.0665800e+02   2.2720000e+00
   2.1378672e+03   1.2432700e+02   3.2248700e+02   1.0641200e+02   2.2690000e+00
   2.1380195e+03   1.2428200e+02   3.2325500e+02   1.0793900e+02   2.2680000e+00
   2.1381721e+03   1.2428800e+02   3.2367700e+02   1.1332200e+02   2.2770000e+00
   2.1383245e+03   1.2436800e+02   3.2490900e+02   1.1580700e+02   2.2910000e+00
   2.1384768e+03   1.2443300e+02   3.2698300e+02   1.1221600e+02   2.2980000e+00
   2.1386292e+03   1.2442800e+02   3.2622300e+02   1.0701500e+02   2.2960000e+00
   2.1387817e+03   1.2447800e+02   3.2382800e+02   1.0310500e+02   2.2940000e+00
   2.1389341e+03   1.2454700e+02   3.2158600e+02   9.9718000e+01   2.2960000e+00
   2.1390864e+03   1.2466800e+02   3.2122200e+02   9.4851000e+01   2.2940000e+00
   2.1392388e+03   1.2462700e+02   3.2150700e+02   9.1461000e+01   2.2880000e+00
   2.1393911e+03   1.2453600e+02   3.2143300e+02   8.7628000e+01   2.2800000e+00
   2.1395437e+03   1.2439600e+02   3.1912900e+02   8.2413000e+01   2.2640000e+00
   2.1396960e+03   1.2423900e+02   3.1633300e+02   8.3734000e+01   2.2500000e+00
   2.1398484e+03   1.2405000e+02   3.1131600e+02   8.9665000e+01   2.2480000e+00
   2.1400007e+03   1.2384200e+02   3.0709600e+02   9.0375000e+01   2.2610000e+00
   2.1401533e+03   1.2370100e+02   3.0165100e+02   8.8316000e+01   2.2740000e+00
   2.1403057e+03   1.2364600e+02   3.0013800e+02   8.6517000e+01   2.2740000e+00
   2.1404580e+03   1.2332500e+02   2.9969800e+02   8.3192000e+01   2.2560000e+00
   2.1406104e+03   1.2281200e+02   3.0033300e+02   8.4168000e+01   2.2400000e+00
   2.1407629e+03   1.2210800e+02   2.9704000e+02   8.7805000e+01   2.2510000e+00
   2.1409153e+03   1.2230600e+02   2.9312100e+02   8.7539000e+01   2.2760000e+00
   2.1410676e+03   1.2285500e+02   2.8950300e+02   8.7115000e+01   2.2910000e+00
   2.1412200e+03   1.2328900e+02   2.8849400e+02   8.5462000e+01   2.2890000e+00
   2.1413723e+03   1.2327300e+02   2.9166200e+02   8.1170000e+01   2.2810000e+00
   2.1415249e+03   1.2262200e+02   2.9290600e+02   7.9268000e+01   2.2780000e+00
   2.1416772e+03   1.2129300e+02   2.8824100e+02   8.0972000e+01   2.2760000e+00
   2.1418296e+03   1.1885400e+02   2.8111700e+02   8.1307000e+01   2.2690000e+00
   2.1419819e+03   1.1676400e+02   2.7452400e+02   7.8975000e+01   2.2630000e+00
   2.1421345e+03   1.1567300e+02   2.6869600e+02   8.0005000e+01   2.2630000e+00
   2.1422869e+03   1.1545500e+02   2.6503100e+02   8.1454000e+01   2.2620000e+00
   2.1424392e+03   1.1571400e+02   2.6309100e+02   7.9753000e+01   2.2220000e+00
   2.1425916e+03   1.1599600e+02   2.6423300e+02   7.9950000e+01   2.1010000e+00
   2.1427441e+03   1.1666100e+02   2.6926900e+02   8.3617000e+01   1.9920000e+00
   2.1428965e+03   1.1754200e+02   2.7571900e+02   8.6011000e+01   2.0280000e+00
   2.1430488e+03   1.1952600e+02   2.8283200e+02   8.6347000e+01   2.1530000e+00
   2.1432012e+03   1.2115100e+02   2.8970400e+02   8.6011000e+01   2.2460000e+00
   2.1433535e+03   1.2388500e+02   2.9603300e+02   8.4817000e+01   2.2770000e+00
   2.1435061e+03   1.2594500e+02   3.0208400e+02   8.7730000e+01   2.2510000e+00
   2.1436584e+03   1.2656300e+02   3.0309800e+02   9.2873000e+01   2.1550000e+00
   2.1438108e+03   1.2504000e+02   3.0142600e+02   9.3679000e+01   2.0260000e+00
   2.1439631e+03   1.2225800e+02   2.9895100e+02   9.3888000e+01   1.9470000e+00
   2.1441157e+03   1.1857200e+02   2.9832400e+02   9.4000000e+01   1.9300000e+00
   2.1442681e+03   1.1593100e+02   3.0113400e+02   9.0426000e+01   1.9240000e+00
   2.1444204e+03   1.1606700e+02   3.1319900e+02   8.5546000e+01   1.9060000e+00
   2.1445728e+03   1.1865100e+02   3.3757800e+02   8.4076000e+01   1.8990000e+00
   2.1447253e+03   1.2327000e+02   3.6728500e+02   8.4078000e+01   1.9150000e+00
   2.1448777e+03   1.2850300e+02   3.8555600e+02   8.3413000e+01   1.9350000e+00
   2.1450300e+03   1.3258600e+02   3.9463500e+02   8.2327000e+01   1.9510000e+00
   2.1451824e+03   1.3425000e+02   3.9157600e+02   8.1070000e+01   1.9750000e+00
