~Version Information Section
VERS. 2.0 : CWLS Log ASCII Standard - VERSION 2.0
WRAP. NO  : One Line per depth Step
~Well Information Section
#MNEM.UNIT                     Data                         Information
#----------   ------------------------------------------   ----------------
STRT.M                             1360.0000 : Start Depth
STOP.M                            2763.0000 : Stop Depth
NULL.        -999.25                        : Null Value
COMP.UPDATED NORSKHYDR                      : Company Name
WELL.        WELL-1                        : Well
FLD .        GLITNE                          : Field
LOC .        META                           : Location
PROV.                                       : Province
CNTY.                                       : County
STAT.        META                           : State/Province
CTRY.        NORWAY                         : Nation
SRVC.        30                             : Logging Company Code
DATE.        11-20-XXXX                    : Run Date
UWI .        WELL0001                       : Unique Well Identifier
API .                                       : API Number
~Parameter Information Block
#MNEM.UNIT       Value                            Description
#---------       ---------                        -------------
~Curve Information Section
#MNEM.UNIT    API CODE                      : Curve description
#---.-----    --------                      : -----------------
DEPT .M                                      : 
Vp   .KM/S                                   : Vp
RHOB .G/C3                                   : Bulk Density
GR   .GAPI                                   : Gamma Ray
~Ascii
# ...
    2197.62500        3.11397        2.15550       36.84810
    2197.75000        3.12707        2.13670       38.02720
    2197.87500        3.13118        2.12750       36.97330
    2198.00000        3.12529        2.13110       35.25240
    2198.12500        3.11468        2.14520       32.29370
    2198.25000        3.10372        2.16250       29.31880
    2198.37500        3.09384        2.17210       29.58230
    2198.50000        3.07942        2.17250       31.24840
    2198.62500        3.09262        2.17380       33.93620
    2198.75000        3.12286        2.17270       34.83140
    2198.87500        3.16621        2.16550       33.55190
    2199.00000        3.21309        2.16230       31.11730
    2199.12500        3.22879        2.16360       29.73320
    2199.25000        3.22306        2.16750       28.54280
    2199.37500        3.20102        2.16990       29.86360
    2199.50000        3.17797        2.17040       31.22420
    2199.62500        3.16084        2.17180       32.28980
    2199.75000        3.14835        2.17020       34.47490
    2199.87500        3.14835        2.17130       31.78360
    2200.00000        3.16113        2.16480       34.02720
    2200.12500        3.17420        2.15750       35.55830
    2200.25000        3.18331        2.15560       35.87470
    2200.37500        3.18941        2.15240       35.29510
    2200.50000        3.19970        2.16630       32.57820
    2200.62500        3.18004        2.17350       32.01430
    2200.75000        3.15220        2.17750       32.80670
    2200.87500        3.13205        2.17620       33.38870
    2201.00000        3.13138        2.16510       33.11650
    2201.12500        3.15226        2.15550       32.07370
    2201.25000        3.15060        2.14870       29.88220
    2201.37500        3.16950        2.14750       29.13810
    2201.50000        3.18825        2.14910       28.44850
    2201.62500        3.20468        2.15210       28.86690
    2201.75000        3.21499        2.16010       30.81760
    2201.87500        3.20632        2.16180       32.77850
    2202.00000        3.19256        2.16710       34.70080
    2202.12500        3.18554        2.16010       36.04380
    2202.25000        3.15585        2.14570       36.17490
    2202.37500        3.12415        2.13730       35.57900
    2202.50000        3.12555        2.12610       35.35640
    2202.62500        3.13710        2.13510       36.48420
    2202.75000        3.18991        2.14300       37.28800
    2202.87500        3.22987        2.15020       38.58250
    2203.00000        3.25017        2.15740       39.52530
    2203.12500        3.25336        2.16220       39.66220
    2203.25000        3.24389        2.16700       39.40830
    2203.37500        3.21234        2.16930       38.28050
    2203.50000        3.15958        2.16800       38.76550
    2203.62500        3.11881        2.16250       41.21780
    2203.75000        3.09260        2.15410       43.72350
    2203.87500        3.08036        2.15250       44.23620
    2204.00000        3.11751        2.16570       43.72350
    2204.12500        3.13699        2.18240       42.75820
    2204.25000        3.13756        2.18830       40.77520
    2204.37500        3.13095        2.18050       39.43660
    2204.50000        3.11322        2.16900       38.66340
    2204.62500        3.06918        2.15140       36.66180
    2204.75000        3.07077        2.14180       37.35390
    2204.87500        3.06312        2.13180       34.45470
    2205.00000        3.06141        2.12310       32.90490
    2205.12500        3.07145        2.11940       32.08600
    2205.25000        3.09222        2.12100       30.84090
    2205.37500        3.11327        2.12110       31.62270
    2205.50000        3.12671        2.12820       29.84100
    2205.62500        3.12531        2.13700       30.01510
    2205.75000        3.11029        2.14500       30.34680
    2205.87500        3.09635        2.15220       30.57520
    2206.00000        3.10385        2.15060       31.77010
    2206.12500        3.12341        2.13940       32.41090
    2206.25000        3.10647        2.13170       33.18400
    2206.37500        3.12554        2.12820       33.17250
    2206.50000        3.15533        2.12790       32.12050
    2206.62500        3.16710        2.13270       30.55710
    2206.75000        3.17895        2.13600       30.14700
    2206.87500        3.19765        2.13790       29.23230
    2207.00000        3.19552        2.13870       29.03520
    2207.12500        3.20855        2.13920       28.38920
    2207.25000        3.23139        2.13990       27.13860
    2207.37500        3.23439        2.13350       26.03390
    2207.50000        3.21864        2.13420       26.93100
    2207.62500        3.24810        2.13690       30.22980
    2207.75000        3.24442        2.15380       32.21920
    2207.87500        3.22550        2.17900       33.42830
    2208.00000        3.21998        2.17580       33.66320
    2208.12500        3.24196        2.17420       30.60620
    2208.25000        3.18978        2.15990       30.32430
    2208.37500        3.16706        2.15230       29.12810
    2208.50000        3.16638        2.14840       28.80210
    2208.62500        3.17473        2.13870       29.73290
    2208.75000        3.17937        2.13870       31.12890
    2208.87500        3.18107        2.13570       30.46250
    2209.00000        3.20793        2.14260       30.66440
    2209.12500        3.21567        2.14920       30.26810
    2209.25000        3.21228        2.15120       30.49320
    2209.37500        3.20574        2.15430       31.42610
    2209.50000        3.19442        2.15430       31.56720
    2209.62500        3.15878        2.15430       33.31020
    2209.75000        3.13472        2.14850       33.79300
    2209.87500        3.12123        2.13770       34.10570
    2210.00000        3.11803        2.12490       33.66040
    2210.12500        3.11924        2.11210       31.99470
    2210.25000        3.10134        2.11740       30.99510
    2210.37500        3.09880        2.12260       29.51160
    2210.50000        3.09252        2.13150       29.11230
    2210.62500        3.08530        2.14020       29.46760
    2210.75000        3.07800        2.13880       30.37340
    2210.87500        3.07014        2.14040       31.68660
    2211.00000        3.08608        2.13520       30.72550
    2211.12500        3.09807        2.12580       30.16580
    2211.25000        3.09621        2.11720       28.48070
    2211.37500        3.09049        2.11210       27.34500
    2211.50000        3.09049        2.10570       27.95470
    2211.62500        3.09049        2.11010       28.21100
    2211.75000        3.09674        2.11010       27.75890
    2211.87500        3.09230        2.11110       27.32320
    2212.00000        3.07834        2.11330       27.44500
    2212.12500        3.06426        2.11310       28.40720
    2212.25000        3.05992        2.11150       29.98450
    2212.37500        3.04426        2.10010       29.81790
    2212.50000        3.05734        2.09260       30.05450
    2212.62500        3.08937        2.10030       29.56040
    2212.75000        3.11432        2.12330       29.47670
    2212.87500        3.12276        2.14250       30.24450
    2213.00000        3.14423        2.14580       30.21880
    2213.12500        3.16096        2.13900       31.04930
    2213.25000        3.14517        2.12850       30.62630
    2213.37500        3.14252        2.12160       30.37430
    2213.50000        3.15868        2.12290       30.32780
    2213.62500        3.17745        2.12130       29.83260
    2213.75000        3.19795        2.12830       29.08930
    2213.87500        3.20000        2.12870       27.00670
    2214.00000        3.17554        2.12550       26.13090
    2214.12500        3.14260        2.12150       26.12460
    2214.25000        3.11497        2.11520       26.81210
