~Version Information Section
VERS. 2.0 : CWLS Log ASCII Standard - VERSION 2.0
WRAP. NO  : One Line per depth Step
~Well Information Section
#MNEM.UNIT                     Data                         Information
#----------   ------------------------------------------   ----------------
STRT.M                             1993.0000 : Start Depth
STOP.M                            2191.0000 : Stop Depth
NULL.        -999.25                        : Null Value
COMP.UPDATED NORSKHYDR                      : Company Name
WELL.        WELL-4                        : Well
FLD .        GLITNE                         : Field
LOC .        META                           : Location
PROV.                                       : Province
CNTY.                                       : County
STAT.        META                           : State/Province
CTRY.        NORWAY                       : Nation
SRVC.        30                             : Logging Company Code
DATE.        10-20-XXXX                    : Run Date
UWI .        WELL0004                       : Unique Well Identifier
API .                                       : API Number
~Parameter Information Block
#MNEM.UNIT       Value                            Description
#---------       ---------                        -------------
~Curve Information Section
#MNEM.UNIT    API CODE                      : Curve description
#---.-----    --------                      : -----------------
DEPT .m                                      : 
Vp   .km/s                                   : Vp(in Km/s)
RHOB .G/C3                                   : Bulk Density
GR   .GAPI                                   : Gamma Ray
~Ascii
# ...
    2177.23511        2.59573        2.14820       89.84090
    2177.38770        2.59794        2.12060       92.33480
    2177.54004        2.58911        2.11510       96.05850
    2177.69238        2.58692        2.11220       96.18990
    2177.84473        2.58035        2.10230       89.77170
    2177.99731        2.62027        2.10310       88.07780
    2178.14966        2.63614        2.10370       88.87190
    2178.30200        2.66378        2.10810       88.25450
    2178.45435        2.71359        2.10710       81.16170
    2178.60669        2.70876        2.10990       78.40510
    2178.75928        2.74042        2.10320       77.45410
    2178.91162        2.73550        2.10510       73.82120
    2179.06396        2.72816        2.10210       74.61520
    2179.21631        2.71843        2.09610       72.09330
    2179.36890        2.71117        2.08310       72.45790
    2179.52124        2.70156        2.08860       71.06360
    2179.67358        2.69917        2.09850       70.46300
    2179.82593        2.69202        2.11170       73.57880
    2179.97852        2.68490        2.11770       70.57830
    2180.13086        2.66378        2.11930       70.55490
    2180.28320        2.64071        2.11280       70.55290
    2180.43555        2.63614        2.11250       69.12500
    2180.58789        2.63159        2.10140       68.44680
    2180.74048        2.62932        2.09880       68.33870
    2180.89282        2.61353        2.10160       70.32250
    2181.04517        2.62027        2.11440       69.21290
    2181.19751        2.62932        2.11630       66.42760
    2181.35010        2.63614        2.11890       71.44350
    2181.50244        2.65682        2.12280       70.74880
    2181.65479        2.68490        2.13080       68.51720
    2181.80713        2.68490        2.13630       68.21030
    2181.95972        2.68964        2.12940       71.99200
    2182.11206        2.70156        2.13830       71.24630
    2182.26440        2.74042        2.14190       70.47200
    2182.41675        2.74783        2.14450       72.97120
    2182.56909        2.75031        2.11120       75.88390
    2182.72168        2.75280        2.06780       68.01280
    2182.87402        2.77536        2.03960       70.04790
    2183.02637        2.78805        2.04530       73.45020
    2183.17871        2.80344        2.07890       74.83520
    2183.33130        2.73796        2.11360       72.02160
    2183.48364        2.75529        2.13390       74.96420
    2183.63599        2.80860        2.12340       78.45140
    2183.78833        2.84531        2.10490       75.45520
    2183.94092        2.86402        2.09320       76.51190
    2184.09326        2.84001        2.08860       74.47010
    2184.24561        2.81639        2.07870       77.40550
    2184.39795        2.76529        2.08040       79.46860
    2184.55029        2.73305        2.08640       85.49570
    2184.70288        2.63386        2.08470       92.59660
    2184.85522        2.54799        2.09730      100.59460
    2185.00757        2.48768        2.12400       99.54660
    2185.15991        2.44773        2.14270       97.01010
    2185.31250        2.49175        2.14450       79.53410
    2185.46484        2.53317        2.13720       67.46970
    2185.61719        2.60016        2.13920       68.18850
    2185.76953        2.60460        2.15320       71.36780
    2185.92212        2.61578        2.18880       67.85440
    2186.07446        2.59352        2.22070       71.49610
    2186.22681        2.58253        2.21820       69.93060
    2186.37915        2.56947        2.18850       66.63320
    2186.53149        2.57816        2.17680       74.32360
    2186.68408        2.56731        2.18560       77.20690
    2186.83643        2.56083        2.19710       61.94580
    2186.98877        2.55654        2.18230       75.14410
    2187.14111        2.55654        2.15650       71.37230
    2187.29370        2.55868        2.14270       69.18900
    2187.44604        2.56299        2.14990       69.10140
    2187.59839        2.56947        2.14960       68.38520
    2187.75073        2.57816        2.12750       68.17390
    2187.90332        2.59131        2.11380       68.72490
    2188.05566        2.60016        2.12020       68.58650
    2188.20801        2.60460        2.13750       73.34940
    2188.36035        2.62253        2.16020       74.20080
    2188.51270        2.62027        2.18590       72.15590
    2188.66528        2.60906        2.24110       71.67410
    2188.81763        2.60016        2.28550       71.35500
    2188.96997        2.59794        2.34530       71.70810
    2189.12231        2.53738        2.36580       69.75210
    2189.27490        2.55868        2.31250       70.12010
    2189.42725        2.58911        2.24630       69.11520
    2189.57959        2.59794        2.20160       74.54330
    2189.73193        2.64071        2.18380       76.02470
    2189.88452        2.66611        2.19150       76.58620
    2190.03687        2.64759        2.20920       73.79340
    2190.18921        2.66378        2.22270       72.01490
    2190.34155        2.63614        2.22440       74.95130
    2190.49390        2.64989        2.21490       76.97940
    2190.64648        2.68727        2.21190       79.83010
    2190.79883        2.75280        2.21050       79.45520
    2190.95117        2.73550        2.19970       85.75610
