~Version Information Section
VERS. 2.0 : CWLS Log ASCII Standard - VERSION 2.0
WRAP. NO  : One Line per depth Step
~Well Information Section
#MNEM.UNIT                     Data                         Information
#----------   ------------------------------------------   ----------------
STRT.M                             2100.0000 : Start Depth
STOP.M                            2300.0000 : Stop Depth
NULL.        -999.25                        : Null Value
COMP.UPDATED NORSKHYDR                      : Company Name
WELL.        WELL-5                        : Well
FLD .        GLITNE                         : Field
LOC .        META                           : Location
PROV.                                       : Province
CNTY.                                       : County
STAT.        META                           : State/Province
CTRY.        NORWAY                       : Nation
SRVC.        30                             : Logging Company Code
DATE.        10-20-XXXX                    : Run Date
UWI .        WELL0005                       : Unique Well Identifier
API .                                       : API Number
~Parameter Information Block
#MNEM.UNIT       Value                            Description
#---------       ---------                        -------------
~Curve Information Section
#MNEM.UNIT    API CODE                      : Curve description
#---.-----    --------                      : -----------------
DEPT .m                                      : 
Vp   .km/s                                   : Vp(in Km/s)
Vs   .km/s                                   : Vs(in km/s)
GR   .GAPI                                   : Gamma Ray
RHOB .G/C3                                   : Bulk Density
~Ascii
# ...
   2.2207729e+03   9.4285000e+01   1.8196600e+02   6.2272000e+01   2.1770000e+00
   2.2209253e+03   9.4085000e+01   1.8168200e+02   6.1138000e+01   2.1710000e+00
   2.2210776e+03   9.3593000e+01   1.8154700e+02   6.0793000e+01   2.1690000e+00
   2.2212300e+03   9.2942000e+01   1.8185400e+02   6.0757000e+01   2.1750000e+00
   2.2213823e+03   9.2408000e+01   1.8125300e+02   6.2991000e+01   2.1870000e+00
   2.2215349e+03   9.2100000e+01   1.7929500e+02   6.3645000e+01   2.1960000e+00
   2.2216873e+03   9.2120000e+01   1.7704900e+02   6.1994000e+01   2.2010000e+00
   2.2218396e+03   9.2563000e+01   1.7830200e+02   6.4400000e+01   2.2040000e+00
   2.2219919e+03   9.3607000e+01   1.8112000e+02   6.7814000e+01   2.2100000e+00
   2.2221445e+03   9.5488000e+01   1.8533100e+02   6.7791000e+01   2.2360000e+00
   2.2222969e+03   9.7674000e+01   1.8966800e+02   7.2626000e+01   2.2850000e+00
   2.2224492e+03   9.9395000e+01   1.9284800e+02   8.1555000e+01   2.3190000e+00
   2.2226016e+03   1.0024900e+02   1.9535400e+02   8.5347000e+01   2.3020000e+00
   2.2227539e+03   1.0040800e+02   1.9707000e+02   8.0694000e+01   2.2440000e+00
   2.2229065e+03   1.0016500e+02   1.9874300e+02   6.8571000e+01   2.1820000e+00
   2.2230588e+03   9.9898000e+01   1.9971400e+02   6.0502000e+01   2.1460000e+00
   2.2232112e+03   9.9843000e+01   2.0043500e+02   6.1733000e+01   2.1380000e+00
   2.2233635e+03   1.0001400e+02   2.0133200e+02   6.4838000e+01   2.1450000e+00
   2.2235161e+03   1.0024100e+02   2.0336300e+02   6.7399000e+01   2.1580000e+00
   2.2236685e+03   1.0034600e+02   2.0456500e+02   6.8708000e+01   2.1800000e+00
   2.2238208e+03   1.0036100e+02   2.0553300e+02   6.9902000e+01   2.2130000e+00
   2.2239731e+03   1.0049100e+02   2.0615000e+02   7.2922000e+01   2.2440000e+00
   2.2241257e+03   1.0107000e+02   2.0799800e+02   7.4241000e+01   2.2430000e+00
   2.2242781e+03   1.0236800e+02   2.1148400e+02   7.1433000e+01   2.2050000e+00
   2.2244304e+03   1.0389200e+02   2.1671600e+02   6.7603000e+01   2.1820000e+00
   2.2245828e+03   1.0499000e+02   2.2122000e+02   6.5930000e+01   2.1960000e+00
   2.2247351e+03   1.0575800e+02   2.2674400e+02   6.9036000e+01   2.2060000e+00
   2.2248877e+03   1.0594700e+02   2.3181700e+02   7.5092000e+01   2.1970000e+00
   2.2250400e+03   1.0612700e+02   2.3594700e+02   8.1089000e+01   2.1950000e+00
   2.2251924e+03   1.0675100e+02   2.3747400e+02   8.2710000e+01   2.2100000e+00
   2.2253447e+03   1.0731100e+02   2.3669200e+02   7.8158000e+01   2.2350000e+00
   2.2254973e+03   1.0746000e+02   2.3488000e+02   7.7457000e+01   2.2280000e+00
   2.2256497e+03   1.0719000e+02   2.3510800e+02   8.2771000e+01   2.1620000e+00
   2.2258020e+03   1.0637500e+02   2.3312500e+02   8.6845000e+01   2.1050000e+00
   2.2259543e+03   1.0457600e+02   2.2930100e+02   8.7446000e+01   2.1120000e+00
   2.2261069e+03   1.0224300e+02   2.2454800e+02   8.5897000e+01   2.1770000e+00
   2.2262593e+03   1.0049800e+02   2.2139100e+02   8.5929000e+01   2.2510000e+00
   2.2264116e+03   9.9974000e+01   2.1759600e+02   8.6168000e+01   2.2760000e+00
   2.2265640e+03   1.0026900e+02   2.1471000e+02   8.3778000e+01   2.2490000e+00
   2.2267163e+03   1.0078200e+02   2.1283500e+02   8.0009000e+01   2.2090000e+00
   2.2268689e+03   1.0115000e+02   2.1213300e+02   7.4306000e+01   2.1780000e+00
   2.2270212e+03   1.0161800e+02   2.1436000e+02   6.8390000e+01   2.1580000e+00
   2.2271736e+03   1.0181400e+02   2.1369100e+02   6.5969000e+01   2.1490000e+00
   2.2273259e+03   1.0227700e+02   2.1238600e+02   6.9675000e+01   2.1480000e+00
   2.2274785e+03   1.0268200e+02   2.1006700e+02   6.9079000e+01   2.1550000e+00
   2.2276309e+03   1.0294900e+02   2.0811600e+02   6.7193000e+01   2.1610000e+00
   2.2277832e+03   1.0306300e+02   2.0676400e+02   6.5881000e+01   2.1700000e+00
   2.2279355e+03   1.0261600e+02   2.0641100e+02   6.5153000e+01   2.1820000e+00
   2.2280881e+03   1.0270400e+02   2.0809700e+02   6.5229000e+01   2.1910000e+00
   2.2282405e+03   1.0326300e+02   2.1177400e+02   6.6013000e+01   2.1970000e+00
   2.2283928e+03   1.0596400e+02   2.1522600e+02   6.7426000e+01   2.2020000e+00
   2.2285452e+03   1.0962600e+02   2.2058200e+02   6.8622000e+01   2.2280000e+00
   2.2286975e+03   1.1291400e+02   2.2565500e+02   7.2926000e+01   2.2470000e+00
   2.2288501e+03   1.1461200e+02   2.3167500e+02   8.1519000e+01   2.2010000e+00
   2.2290024e+03   1.1420100e+02   2.3684200e+02   8.5480000e+01   2.1310000e+00
   2.2291548e+03   1.1261400e+02   2.4044300e+02   8.3312000e+01   2.1340000e+00
   2.2293071e+03   1.1031600e+02   2.4382500e+02   8.2625000e+01   2.1860000e+00
   2.2294597e+03   1.0831200e+02   2.4759100e+02   8.2837000e+01   2.2320000e+00
   2.2296121e+03   1.0674200e+02   2.5171500e+02   8.2125000e+01   2.2480000e+00
   2.2297644e+03   1.0651900e+02   2.5393500e+02   8.1288000e+01   2.2340000e+00
   2.2299167e+03   1.0768600e+02   2.5579800e+02   8.1703000e+01   2.2070000e+00
   2.2300693e+03   1.0990200e+02   2.5887700e+02   8.4775000e+01   2.1210000e+00
   2.2302217e+03   1.1219200e+02   2.6422600e+02   8.4758000e+01   2.0830000e+00
   2.2303740e+03   1.1420800e+02   2.7050800e+02   8.4303000e+01   2.1030000e+00
   2.2305264e+03   1.1563500e+02   2.7800800e+02   8.8493000e+01   2.1120000e+00
   2.2306787e+03   1.1648200e+02   2.8614800e+02   9.1100000e+01   2.0760000e+00
   2.2308313e+03   1.1684200e+02   2.9413000e+02   9.0456000e+01   2.0640000e+00
   2.2309836e+03   1.1681700e+02   2.9869900e+02   9.1697000e+01   2.0820000e+00
   2.2311360e+03   1.1620000e+02   2.9926800e+02   8.9097000e+01   2.0990000e+00
   2.2312883e+03   1.1492700e+02   2.9653600e+02   8.5027000e+01   2.1500000e+00
   2.2314409e+03   1.1275100e+02   2.9005300e+02   8.5879000e+01   2.2410000e+00
   2.2315933e+03   1.1029600e+02   2.7607500e+02   8.5878000e+01   2.2960000e+00
   2.2317456e+03   1.0849200e+02   2.6128700e+02   8.4767000e+01   2.3210000e+00
   2.2318979e+03   1.0762500e+02   2.4732200e+02   8.4374000e+01   2.3070000e+00
   2.2320505e+03   1.0720100e+02   2.3891100e+02   8.0908000e+01   2.2780000e+00
   2.2322029e+03   1.0656300e+02   2.3370400e+02   7.5652000e+01   2.2240000e+00
   2.2323552e+03   1.0539200e+02   2.2889200e+02   7.0263000e+01   2.1770000e+00
   2.2325076e+03   1.0441100e+02   2.2274700e+02   6.7189000e+01   2.1580000e+00
   2.2326599e+03   1.0387300e+02   2.1801000e+02   6.6922000e+01   2.1540000e+00
   2.2328125e+03   1.0349200e+02   2.1532200e+02   6.5632000e+01   2.1560000e+00
   2.2329648e+03   1.0297400e+02   2.1689900e+02   6.4531000e+01   2.1630000e+00
   2.2331172e+03   1.0299600e+02   2.1976500e+02   6.5456000e+01   2.1720000e+00
   2.2332695e+03   1.0303900e+02   2.2391600e+02   6.5061000e+01   2.1780000e+00
   2.2334221e+03   1.0282600e+02   2.2636400e+02   6.6477000e+01   2.1930000e+00
   2.2335745e+03   1.0190300e+02   2.2703000e+02   7.3176000e+01   2.2140000e+00
   2.2337268e+03   1.0050500e+02   2.2707200e+02   8.0364000e+01   2.2150000e+00
   2.2338792e+03   9.8700000e+01   2.2673700e+02   7.7127000e+01   2.2520000e+00
   2.2340317e+03   9.6579000e+01   2.2775800e+02   7.3851000e+01   2.4180000e+00
   2.2341841e+03   9.5339000e+01   2.3072700e+02   7.4972000e+01   2.6630000e+00
   2.2343364e+03   9.5935000e+01   2.3571100e+02   7.5664000e+01   2.7460000e+00
   2.2344888e+03   9.6470000e+01   2.3489900e+02   7.2795000e+01   2.5920000e+00
   2.2346411e+03   9.7998000e+01   2.3130900e+02   7.3188000e+01   2.3920000e+00
   2.2347937e+03   9.9274000e+01   2.2489200e+02   7.7321000e+01   2.2520000e+00
   2.2349460e+03   9.9964000e+01   2.1939900e+02   7.6661000e+01   2.1740000e+00
   2.2350984e+03   1.0009200e+02   2.1702700e+02   7.1243000e+01   2.1410000e+00
   2.2352507e+03   1.0000000e+02   2.1604700e+02   6.6740000e+01   2.1340000e+00
   2.2354033e+03   9.9813000e+01   2.1355500e+02   6.5970000e+01   2.1370000e+00
   2.2355557e+03   9.9451000e+01   2.0995700e+02   6.6386000e+01   2.1410000e+00
   2.2357080e+03   9.8884000e+01   2.0661000e+02   6.6161000e+01   2.1400000e+00
