~Version Information Section
VERS. 2.0 : CWLS Log ASCII Standard - VERSION 2.0
WRAP. NO  : One Line per depth Step
~Well Information Section
#MNEM.UNIT                     Data                         Information
#----------   ------------------------------------------   ----------------
STRT.M                             1360.0000 : Start Depth
STOP.M                            2763.0000 : Stop Depth
NULL.        -999.25                        : Null Value
COMP.UPDATED NORSKHYDR                      : Company Name
WELL.        WELL-1                        : Well
FLD .        GLITNE                          : Field
LOC .        META                           : Location
PROV.                                       : Province
CNTY.                                       : County
STAT.        META                           : State/Province
CTRY.        NORWAY                         : Nation
SRVC.        30                             : Logging Company Code
DATE.        11-20-XXXX                    : Run Date
UWI .        WELL0001                       : Unique Well Identifier
API .                                       : API Number
~Parameter Information Block
#MNEM.UNIT       Value                            Description
#---------       ---------                        -------------
~Curve Information Section
#MNEM.UNIT    API CODE                      : Curve description
#---.-----    --------                      : -----------------
DEPT .M                                      : 
Vp   .KM/S                                   : Vp
RHOB .G/C3                                   : Bulk Density
GR   .GAPI                                   : Gamma Ray
~Ascii
    1360.12500        4.65708        2.21850       25.22310
    1360.25000        4.40293        2.20910       27.72050
    1360.37500        4.40173        2.19630       28.39270
    1360.50000        4.42270        2.18340       26.67190
    1360.62500        4.44917        2.16100       24.58290
    1360.75000        5.01796        2.13590       22.00280
    1360.87500        4.19756        2.12580       21.74290
    1361.00000        3.95325        2.13770       22.95770
    1361.12500        4.04154        2.15210       24.27810
    1361.25000        3.69902        2.16810       24.50880
    1361.37500        4.19783        2.19510       24.73950
    1361.50000        4.31228        2.22030       23.15190
    1361.62500        4.37362        2.24740       23.80450
    1361.75000        4.24974        2.28220       25.27470
    1361.87500        3.93096        2.27260       26.02150
    1362.00000        3.66459        2.30410       26.02610
    1362.12500        4.83989        2.35060       23.93710
    1362.25000        5.16315        2.41260       22.39540
    1362.37500        5.55684        2.48350       22.37550
    1362.50000        5.87008        2.53930       23.72660
    1362.62500        5.36373        2.56490       25.44600
    1362.75000        5.35407        2.56020       25.51010
    1362.87500        5.39765        2.52080       25.85530
    1363.00000        5.43327        2.44640       23.43120
    1363.12500        5.15891        2.34740       21.02200
    1363.25000        4.90553        2.27210       19.95110
    1363.37500        5.52716        2.22470       18.94900
    1363.50000        5.47121        2.21980       22.20420
    1363.62500        5.45705        2.20980       23.53060
    1363.75000        5.16829        2.17910       23.72180
    1363.87500        4.89824        2.16120       23.08970
    1364.00000        4.88567        2.13720       22.30210
    1364.12500        4.84981        2.14590       23.69900
    1364.25000        4.82550        2.15710       23.57620
    1364.37500        4.78537        2.16820       23.86720
    1364.50000        4.75675        2.18290       23.41350
    1364.62500        4.75397        2.19090       22.42190
    1364.75000        4.77207        2.20040       22.37740
    1364.87500        4.77590        2.19730       21.68530
    1365.00000        5.14314        2.19260       22.79120
    1365.12500        5.29730        2.19500       23.62490
    1365.25000        5.24008        2.20770       25.33970
    1365.37500        5.18469        2.21900       28.11900
    1365.50000        5.22570        2.23560       27.67050
    1365.62500        5.11809        2.24320       27.01090
    1365.75000        4.60343        2.23440       24.60680
    1365.87500        4.35107        2.21180       22.23870
    1366.00000        4.53794        2.19580       21.07600
    1366.12500        5.08232        2.18760       21.40240
    1366.25000        4.49112        2.21190       22.04320
    1366.37500        4.43405        2.23450       22.87400
    1366.50000        4.81540        2.24860       23.73270
    1366.62500        4.89107        2.26610       24.79710
    1366.75000        4.54575        2.25010       25.64290
    1366.87500        5.25717        2.25500       24.70730
    1367.00000        5.23777        2.24530       25.34110
    1367.12500        5.26862        2.23580       23.71340
    1367.25000        5.27368        2.23760       22.30330
    1367.37500        4.92287        2.23440       22.15730
    1367.50000        4.17247        2.24230       23.04300
    1367.62500        3.77031        2.24410       23.27370
    1367.75000        4.65119        2.24060       25.18750
    1367.87500        4.24454        2.23040       24.41200
    1368.00000        3.61098        2.21450       23.90980
    1368.12500        3.53541        2.21130       24.87260
    1368.25000        4.16939        2.19800       24.45290
    1368.37500        3.78940        2.19340       23.06880
    1368.50000        3.69118        2.18750       20.39750
    1368.62500        4.24192        2.17660       19.38090
    1368.75000        4.58124        2.17180       20.06490
    1368.87500        3.83159        2.17020       21.23220
    1369.00000        4.99318        2.18410       22.18050
    1369.12500        5.14344        2.20170       21.25230
    1369.25000        4.18687        2.21230       19.98540
    1369.37500        3.69176        2.21140       19.79750
    1369.50000        3.69088        2.21460       20.42960
    1369.62500        3.67682        2.22520       20.07130
    1369.75000        4.08616        2.23640       21.18630
    1369.87500        3.84887        2.24060       21.46020
    1370.00000        3.61615        2.23480       22.32290
    1370.12500        3.21763        2.22170       22.94450
    1370.25000        2.71950        2.20250       22.49130
    1370.37500        2.69974        2.18060       22.26060
    1370.50000        2.68952        2.15430       22.01770
    1370.62500        2.85673        2.13230       22.63110
    1370.75000        2.87182        2.12190       23.19040
    1370.87500        2.76914        2.11550       23.55260
    1371.00000        2.89506        2.13660       24.33460
    1371.12500        3.09714        2.15550       26.03910
    1371.25000        2.95226        2.16320       25.46760
    1371.37500        2.87064        2.15970       25.10860
    1371.50000        2.85574        2.15090       24.09910
    1371.62500        2.85520        2.13160       22.40340
    1371.75000        2.88009        2.12480       23.40300
    1371.87500        2.86288        2.13630       24.10090
    1372.00000        3.09317        2.17130       26.42360
    1372.12500        3.12262        2.22380       26.32070
    1372.25000        3.10951        2.26870       25.05500
    1372.37500        3.55393        2.28680       26.05940
    1372.50000        3.49955        2.28250       23.03490
    1372.62500        3.46458        2.27560       25.22850
    1372.75000        3.43654        2.27140       23.40520
    1372.87500        3.89962        2.26600       21.74070
    1373.00000        5.05635        2.26920       22.69320
    1373.12500        4.72903        2.24690       21.97210
    1373.25000        5.18244        2.20630       22.36940
    1373.37500        4.73731        2.16680       22.53400
    1373.50000        4.82660        2.14310       23.19170
    1373.62500        5.05590        2.13700       24.79410
    1373.75000        4.22624        2.17390       26.75990
    1373.87500        2.72134        2.19550       24.69650
    1374.00000        2.20651        2.20220       22.62150
    1374.12500        2.15861        2.19160       20.52760
    1374.25000        2.14242        2.17320       18.97240
    1374.37500        2.00958        2.21330       18.67370
    1374.50000        1.89774        2.26500       20.27660
    1374.62500        1.82214        2.38890       21.90420
    1374.75000        1.74060        2.40470       26.99470
    1374.87500        1.82061        2.30650       31.46390
    1375.00000        1.97395        2.32230       34.27620
    1375.12500        2.03691        2.15730       35.58300
    1375.25000        2.14881        2.06810       35.12160
    1375.37500        2.13272        1.99460       37.09250
    1375.50000        1.81463        1.94610       37.39210
    1375.62500        1.91139        1.94630       37.77840
    1375.75000        2.59631        1.97760       37.18690
    1375.87500        3.08076        2.00730       32.49630
    1376.00000        3.21051        2.03060       33.93170
    1376.12500        3.15373        2.04660       33.63730
    1376.25000        2.98052        2.05380       33.90230
    1376.37500        2.67617        2.05090       33.92850
    1376.50000        2.34416        2.05250       32.91690
    1376.62500        2.20507        2.05410       32.30170
    1376.75000        2.04555        2.03670       33.04940
