~Version Information Section
VERS. 2.0 : CWLS Log ASCII Standard - VERSION 2.0
WRAP. NO  : One Line per depth Step
~Well Information Section
#MNEM.UNIT                     Data                         Information
#----------   ------------------------------------------   ----------------
STRT.M                             1360.0000 : Start Depth
STOP.M                            2763.0000 : Stop Depth
NULL.        -999.25                        : Null Value
COMP.UPDATED NORSKHYDR                      : Company Name
WELL.        WELL-1                        : Well
FLD .        GLITNE                          : Field
LOC .        META                           : Location
PROV.                                       : Province
CNTY.                                       : County
STAT.        META                           : State/Province
CTRY.        NORWAY                         : Nation
SRVC.        30                             : Logging Company Code
DATE.        11-20-XXXX                    : Run Date
UWI .        WELL0001                       : Unique Well Identifier
API .                                       : API Number
~Parameter Information Block
#MNEM.UNIT       Value                            Description
#---------       ---------                        -------------
~Curve Information Section
#MNEM.UNIT    API CODE                      : Curve description
#---.-----    --------                      : -----------------
DEPT .M                                      : 
Vp   .KM/S                                   : Vp
RHOB .G/C3                                   : Bulk Density
GR   .GAPI                                   : Gamma Ray
~Ascii
# ...
    2465.62500        3.02397        2.19070       40.05230
    2465.75000        3.01666        2.18580       41.23980
    2465.87500        3.00509        2.18180       39.78480
    2466.00000        3.00243        2.18340       37.66580
    2466.12500        3.01308        2.20100       39.74190
    2466.25000        3.01409        2.20920       40.40210
    2466.37500        3.00156        2.19900       41.16080
    2466.50000        2.98838        2.17490       39.44290
    2466.62500        2.98684        2.15600       35.69590
    2466.75000        3.00322        2.14800       34.68990
    2466.87500        3.01235        2.15560       32.63940
    2467.00000        3.01533        2.16200       30.94270
    2467.12500        3.02866        2.16700       29.44830
    2467.25000        3.05797        2.17410       28.48170
    2467.37500        3.09736        2.17570       28.87280
    2467.50000        3.11685        2.17580       32.65350
    2467.62500        3.13966        2.16890       32.61940
    2467.75000        3.14157        2.15850       32.23850
    2467.87500        3.11064        2.14690       30.87230
    2468.00000        3.05798        2.13370       29.38720
    2468.12500        3.01279        2.11450       30.13230
    2468.25000        2.99007        2.10730       30.26040
    2468.37500        2.99522        2.11340       29.83080
    2468.50000        2.99552        2.13000       29.63290
    2468.62500        2.99430        2.15070       29.07380
    2468.75000        2.99899        2.16350       27.94080
    2468.87500        2.99748        2.16250       28.13300
    2469.00000        3.01493        2.16330       26.79960
    2469.12500        3.01288        2.16410       28.17590
    2469.25000        3.00851        2.16310       29.07630
    2469.37500        3.01730        2.15980       28.91700
    2469.50000        3.04368        2.15500       29.13450
    2469.62500        3.03746        2.15570       26.80200
    2469.75000        3.03661        2.15110       25.04450
    2469.87500        3.03361        2.14310       24.00640
    2470.00000        3.02701        2.13370       24.01860
    2470.12500        3.01684        2.11930       25.17390
    2470.25000        3.00312        2.12070       27.07070
    2470.37500        2.99996        2.13090       26.58760
    2470.50000        3.00509        2.14900       25.55270
    2470.62500        3.00434        2.16830       25.55020
    2470.75000        3.00126        2.17950       26.07200
    2470.87500        3.00699        2.17790       25.77810
    2471.00000        3.01004        2.17200       26.31640
    2471.12500        3.00766        2.16020       25.30090
    2471.25000        3.00973        2.15090       25.66400
    2471.37500        3.02334        2.15070       26.55420
    2471.50000        3.04230        2.16020       26.94980
    2471.62500        3.04271        2.16670       26.66140
    2471.75000        3.07100        2.17310       25.94370
    2471.87500        3.08702        2.16190       25.62350
    2472.00000        3.11298        2.14760       26.07770
    2472.12500        3.13089        2.15020       26.92110
    2472.25000        3.11636        2.14860       27.57260
    2472.37500        3.10334        2.15870       28.21340
    2472.50000        3.10527        2.16770       27.79450
    2472.62500        3.07702        2.16800       27.83780
    2472.75000        3.05338        2.16210       28.32920
    2472.87500        3.05236        2.16180       29.24370
    2473.00000        3.06173        2.15380       30.70470
    2473.12500        3.06963        2.16290       31.85810
    2473.25000        3.05417        2.16510       31.51450
    2473.37500        3.04892        2.15900       30.94840
    2473.50000        3.05603        2.15180       30.64060
    2473.62500        3.06420        2.14860       30.53060
    2473.75000        3.05790        2.15150       29.86420
    2473.87500        3.07551        2.15820       28.10600
    2474.00000        3.07264        2.16210       27.03210
    2474.12500        3.05119        2.15980       25.92470
    2474.25000        3.02418        2.15190       25.88180
    2474.37500        3.00798        2.14550       28.92840
    2474.50000        3.00040        2.15000       28.12100
    2474.62500        3.00699        2.15030       28.77310
    2474.75000        3.03070        2.14580       28.86680
    2474.87500        3.05377        2.13790       28.83560
    2475.00000        3.05806        2.12340       29.57630
    2475.12500        3.04086        2.12770       31.43450
    2475.25000        3.02835        2.13130       28.56750
    2475.37500        3.01375        2.13450       28.19530
    2475.50000        3.00179        2.13820       28.56560
    2475.62500        2.99225        2.14230       28.97230
    2475.75000        2.98275        2.13910       29.60940
    2475.87500        2.98275        2.13870       29.60940
    2476.00000        3.00523        2.13760       28.15960
    2476.12500        3.02520        2.14090       27.60220
    2476.25000        3.04631        2.14910       27.52510
    2476.37500        3.07414        2.15230       27.63970
    2476.50000        3.10624        2.15390       28.84380
    2476.62500        3.10624        2.16050       29.30510
    2476.75000        3.10244        2.16770       30.15720
    2476.87500        3.09127        2.17300       29.77930
    2477.00000        3.06874        2.17560       28.61970
    2477.12500        3.03259        2.17400       27.90810
    2477.25000        2.98539        2.16510       26.78030
    2477.37500        2.94884        2.15880       26.28940
    2477.50000        2.93287        2.15620       26.32290
    2477.62500        2.94727        2.15860       27.74260
    2477.75000        2.98541        2.16810       30.09730
    2477.87500        3.01811        2.17130       31.20670
    2478.00000        3.02888        2.15890       33.05220
    2478.12500        3.01232        2.14570       30.89850
    2478.25000        2.98432        2.13450       29.92690
    2478.37500        2.96571        2.12570       29.46260
    2478.50000        2.96979        2.13050       27.79500
    2478.62500        2.98021        2.14280       28.71780
    2478.75000        2.99351        2.15560       26.76340
    2478.87500        3.01582        2.16760       26.81580
    2479.00000        3.03288        2.17450       27.06300
    2479.12500        3.02751        2.16990       27.17780
    2479.25000        2.99007        2.16990       28.68780
    2479.37500        2.99007        2.17130       27.26530
    2479.50000        2.99888        2.17090       25.46900
    2479.62500        3.00951        2.16870       24.50520
    2479.75000        3.01474        2.16430       24.71900
    2479.87500        3.01331        2.15470       26.09130
    2480.00000        3.01944        2.14820       28.53910
    2480.12500        2.95352        2.14290       27.94010
    2480.25000        2.94574        2.14150       28.14790
    2480.37500        2.95817        2.14550       27.19220
    2480.50000        2.96910        2.15530       25.87090
    2480.62500        2.97974        2.16820       26.71260
    2480.75000        3.00991        2.16850       25.49510
    2480.87500        3.03399        2.17000       27.07420
    2481.00000        3.03929        2.16580       26.79070
    2481.12500        3.03990        2.15360       26.39030
    2481.25000        3.05187        2.15040       27.32290
    2481.37500        3.08033        2.14570       27.29720
    2481.50000        3.10291        2.15310       27.76410
    2481.62500        3.10573        2.16430       26.76480
    2481.75000        3.10426        2.17350       25.99700
    2481.87500        3.10267        2.17720       26.17060
    2482.00000        3.09359        2.17240       26.91330
    2482.12500        3.05073        2.16050       25.97770
    2482.25000        3.01722        2.15410       26.27410
