~Version Information Section
VERS. 2.0 : CWLS Log ASCII Standard - VERSION 2.0
WRAP. NO  : One Line per depth Step
~Well Information Section
#MNEM.UNIT                     Data                         Information
#----------   ------------------------------------------   ----------------
STRT.M                             2100.0000 : Start Depth
STOP.M                            2300.0000 : Stop Depth
NULL.        -999.25                        : Null Value
COMP.UPDATED NORSKHYDR                      : Company Name
WELL.        WELL-5                        : Well
FLD .        GLITNE                         : Field
LOC .        META                           : Location
PROV.                                       : Province
CNTY.                                       : County
STAT.        META                           : State/Province
CTRY.        NORWAY                       : Nation
SRVC.        30                             : Logging Company Code
DATE.        10-20-XXXX                    : Run Date
UWI .        WELL0005                       : Unique Well Identifier
API .                                       : API Number
~Parameter Information Block
#MNEM.UNIT       Value                            Description
#---------       ---------                        -------------
~Curve Information Section
#MNEM.UNIT    API CODE                      : Curve description
#---.-----    --------                      : -----------------
DEPT .m                                      : 
Vp   .km/s                                   : Vp(in Km/s)
Vs   .km/s                                   : Vs(in km/s)
GR   .GAPI                                   : Gamma Ray
RHOB .G/C3                                   : Bulk Density
~Ascii
# ...
   2.1151597e+03   1.2501500e+02   3.2975900e+02   8.5628000e+01   2.2770000e+00
   2.1153120e+03   1.2547400e+02   3.3244800e+02   8.7572000e+01   2.2830000e+00
   2.1154644e+03   1.2653600e+02   3.3469200e+02   8.6027000e+01   2.3070000e+00
   2.1156169e+03   1.2754000e+02   3.3758900e+02   8.5129000e+01   2.3220000e+00
   2.1157693e+03   1.2806800e+02   3.4224900e+02   8.5052000e+01   2.3110000e+00
   2.1159216e+03   1.2821500e+02   3.4684800e+02   8.4553000e+01   2.2910000e+00
   2.1160740e+03   1.2824000e+02   3.4796900e+02   8.4183000e+01   2.2710000e+00
   2.1162263e+03   1.2827200e+02   3.4589000e+02   8.6964000e+01   2.2590000e+00
   2.1163789e+03   1.2825800e+02   3.4300500e+02   9.0967000e+01   2.2540000e+00
   2.1165312e+03   1.2828800e+02   3.4112300e+02   9.1566000e+01   2.2580000e+00
   2.1166836e+03   1.2844700e+02   3.4279600e+02   8.9138000e+01   2.2740000e+00
   2.1168359e+03   1.2875400e+02   3.4730800e+02   8.6853000e+01   2.2930000e+00
   2.1169885e+03   1.2896900e+02   3.5240000e+02   8.6029000e+01   2.2960000e+00
   2.1171409e+03   1.2899200e+02   3.5516200e+02   8.3951000e+01   2.2810000e+00
   2.1172932e+03   1.2885900e+02   3.5460500e+02   8.2478000e+01   2.2640000e+00
   2.1174456e+03   1.2871700e+02   3.4988900e+02   8.3259000e+01   2.2570000e+00
   2.1175981e+03   1.2862800e+02   3.4303000e+02   8.3700000e+01   2.2610000e+00
   2.1177505e+03   1.2854400e+02   3.3898000e+02   8.6596000e+01   2.2630000e+00
   2.1179028e+03   1.2848300e+02   3.4109100e+02   9.3158000e+01   2.2590000e+00
   2.1180552e+03   1.2822200e+02   3.4428900e+02   9.7400000e+01   2.2510000e+00
   2.1182075e+03   1.2790300e+02   3.4783100e+02   9.4760000e+01   2.2440000e+00
   2.1183601e+03   1.2712800e+02   3.4791100e+02   8.8318000e+01   2.2440000e+00
   2.1185125e+03   1.2727800e+02   3.4665100e+02   8.3235000e+01   2.2410000e+00
   2.1186648e+03   1.2779300e+02   3.4508300e+02   8.1292000e+01   2.2350000e+00
   2.1188171e+03   1.2944500e+02   3.4610300e+02   8.2879000e+01   2.2380000e+00
   2.1189697e+03   1.3090100e+02   3.4702700e+02   8.6783000e+01   2.2480000e+00
   2.1191221e+03   1.3149300e+02   3.4783500e+02   8.9313000e+01   2.2480000e+00
   2.1192744e+03   1.3124200e+02   3.4717700e+02   8.8100000e+01   2.2410000e+00
   2.1194268e+03   1.3023900e+02   3.5017600e+02   9.0210000e+01   2.2440000e+00
   2.1195793e+03   1.2934100e+02   3.5293500e+02   9.4962000e+01   2.2570000e+00
   2.1197317e+03   1.2892800e+02   3.5690300e+02   9.3521000e+01   2.2740000e+00
   2.1198840e+03   1.2888500e+02   3.6219300e+02   9.0165000e+01   2.2890000e+00
   2.1200364e+03   1.2914600e+02   3.6257800e+02   8.8660000e+01   2.2920000e+00
   2.1201887e+03   1.2966000e+02   3.5810300e+02   8.6626000e+01   2.2820000e+00
   2.1203413e+03   1.3037400e+02   3.5211000e+02   8.5750000e+01   2.2680000e+00
   2.1204937e+03   1.3052700e+02   3.4610200e+02   8.7182000e+01   2.2630000e+00
   2.1206460e+03   1.2976400e+02   3.4274100e+02   8.9086000e+01   2.2670000e+00
   2.1207983e+03   1.2876000e+02   3.4080700e+02   8.8057000e+01   2.2650000e+00
   2.1209509e+03   1.2779600e+02   3.4070800e+02   8.6837000e+01   2.2600000e+00
   2.1211033e+03   1.2671000e+02   3.4072600e+02   8.7780000e+01   2.2610000e+00
   2.1212556e+03   1.2587800e+02   3.3925200e+02   9.0256000e+01   2.2680000e+00
   2.1214080e+03   1.2543700e+02   3.3760400e+02   9.3668000e+01   2.2790000e+00
   2.1215605e+03   1.2527500e+02   3.3477400e+02   9.5596000e+01   2.2940000e+00
   2.1217129e+03   1.2523900e+02   3.3346800e+02   9.4329000e+01   2.2990000e+00
   2.1218652e+03   1.2515200e+02   3.3365400e+02   9.4004000e+01   2.2910000e+00
   2.1220176e+03   1.2502100e+02   3.3405100e+02   9.4173000e+01   2.2830000e+00
   2.1221699e+03   1.2487800e+02   3.3447600e+02   9.3662000e+01   2.2700000e+00
   2.1223225e+03   1.2474200e+02   3.3312800e+02   9.1684000e+01   2.2460000e+00
   2.1224749e+03   1.2486400e+02   3.3121200e+02   8.7121000e+01   2.2310000e+00
   2.1226272e+03   1.2542900e+02   3.3172800e+02   8.6561000e+01   2.2410000e+00
   2.1227795e+03   1.2669500e+02   3.3721400e+02   8.8014000e+01   2.2700000e+00
   2.1229321e+03   1.2782700e+02   3.4013100e+02   8.5244000e+01   2.2950000e+00
   2.1230845e+03   1.2840900e+02   3.4131600e+02   8.1405000e+01   2.2970000e+00
   2.1232368e+03   1.2841500e+02   3.3706600e+02   8.3034000e+01   2.2820000e+00
   2.1233892e+03   1.2791300e+02   3.3236600e+02   8.5765000e+01   2.2660000e+00
   2.1235417e+03   1.2698800e+02   3.2692700e+02   8.4759000e+01   2.2560000e+00
   2.1236941e+03   1.2551300e+02   3.2065500e+02   8.3740000e+01   2.2480000e+00
   2.1238464e+03   1.2465000e+02   3.1734300e+02   8.1765000e+01   2.2510000e+00
   2.1239988e+03   1.2490800e+02   3.1665000e+02   7.9925000e+01   2.2700000e+00
   2.1241511e+03   1.2634200e+02   3.1953300e+02   8.0278000e+01   2.2850000e+00
   2.1243037e+03   1.2765300e+02   3.2608100e+02   8.2556000e+01   2.2770000e+00
   2.1244561e+03   1.2830700e+02   3.3134400e+02   8.5609000e+01   2.2640000e+00
   2.1246084e+03   1.2842300e+02   3.3537800e+02   8.7794000e+01   2.2660000e+00
   2.1247607e+03   1.2832200e+02   3.3728000e+02   8.8851000e+01   2.2710000e+00
   2.1249133e+03   1.2799200e+02   3.3807900e+02   8.8393000e+01   2.2640000e+00
   2.1250657e+03   1.2754000e+02   3.3743300e+02   9.0241000e+01   2.2530000e+00
   2.1252180e+03   1.2692600e+02   3.3727100e+02   9.2620000e+01   2.2510000e+00
   2.1253704e+03   1.2720100e+02   3.3864600e+02   9.3032000e+01   2.2550000e+00
   2.1255227e+03   1.2783000e+02   3.4000800e+02   9.2411000e+01   2.2540000e+00
   2.1256753e+03   1.2845500e+02   3.4408500e+02   9.0988000e+01   2.2580000e+00
   2.1258276e+03   1.2884900e+02   3.4745400e+02   8.9517000e+01   2.2830000e+00
   2.1259800e+03   1.2905700e+02   3.5044000e+02   8.4813000e+01   2.3170000e+00
   2.1261323e+03   1.2915500e+02   3.5269800e+02   8.1424000e+01   2.3260000e+00
   2.1262849e+03   1.2908400e+02   3.5510800e+02   8.4090000e+01   2.3100000e+00
   2.1264373e+03   1.2889200e+02   3.5474300e+02   8.6725000e+01   2.2990000e+00
   2.1265896e+03   1.2835800e+02   3.5188000e+02   8.7944000e+01   2.2960000e+00
   2.1267419e+03   1.2770900e+02   3.4645900e+02   9.2981000e+01   2.2590000e+00
   2.1268945e+03   1.2692800e+02   3.3747100e+02   9.7847000e+01   2.1730000e+00
   2.1270469e+03   1.2758100e+02   3.3275200e+02   9.7691000e+01   2.0940000e+00
   2.1271992e+03   1.2963300e+02   3.3361400e+02   9.6935000e+01   2.0820000e+00
   2.1273516e+03   1.3271500e+02   3.4039100e+02   9.9361000e+01   2.1480000e+00
   2.1275039e+03   1.3534800e+02   3.5303700e+02   1.0484100e+02   2.2240000e+00
   2.1276565e+03   1.3561000e+02   3.6576400e+02   1.0760200e+02   2.2500000e+00
   2.1278088e+03   1.3517300e+02   3.6933100e+02   1.0534700e+02   2.2480000e+00
   2.1279612e+03   1.3399800e+02   3.6674700e+02   1.0370700e+02   2.2450000e+00
   2.1281135e+03   1.3275500e+02   3.6527100e+02   1.0472300e+02   2.2520000e+00
   2.1282661e+03   1.3124200e+02   3.6158000e+02   1.0473800e+02   2.2730000e+00
   2.1284185e+03   1.2942400e+02   3.6015100e+02   1.0720100e+02   2.2900000e+00
   2.1285708e+03   1.2783600e+02   3.6100100e+02   1.1219600e+02   2.2900000e+00
   2.1287231e+03   1.2767700e+02   3.6259600e+02   1.1272700e+02   2.2810000e+00
   2.1288757e+03   1.2809200e+02   3.6317200e+02   1.1030800e+02   2.2760000e+00
   2.1290281e+03   1.2847300e+02   3.6115700e+02   1.0896700e+02   2.2770000e+00
   2.1291804e+03   1.2865200e+02   3.5794600e+02   1.0651100e+02   2.2760000e+00
   2.1293328e+03   1.2864400e+02   3.5545400e+02   1.0408800e+02   2.2680000e+00
   2.1294851e+03   1.2859300e+02   3.5384400e+02   1.0218800e+02   2.2600000e+00
   2.1296377e+03   1.2854200e+02   3.5330800e+02   1.0044500e+02   2.2620000e+00
   2.1297900e+03   1.2850800e+02   3.5315200e+02   1.0037100e+02   2.2810000e+00
   2.1299424e+03   1.2851300e+02   3.5319300e+02   9.7246000e+01   2.3130000e+00
   2.1300947e+03   1.2855600e+02   3.5693200e+02   8.9723000e+01   2.3350000e+00
