~Version Information Section
VERS. 2.0 : CWLS Log ASCII Standard - VERSION 2.0
WRAP. NO  : One Line per depth Step
~Well Information Section
#MNEM.UNIT                     Data                         Information
#----------   ------------------------------------------   ----------------
STRT.M                             2100.0000 : Start Depth
STOP.M                            2300.0000 : Stop Depth
NULL.        -999.25                        : Null Value
COMP.UPDATED NORSKHYDR                      : Company Name
WELL.        WELL-5                        : Well
FLD .        GLITNE                         : Field
LOC .        META                           : Location
PROV.                                       : Province
CNTY.                                       : County
STAT.        META                           : State/Province
CTRY.        NORWAY                       : Nation
SRVC.        30                             : Logging Company Code
DATE.        10-20-XXXX                    : Run Date
UWI .        WELL0005                       : Unique Well Identifier
API .                                       : API Number
~Parameter Information Block
#MNEM.UNIT       Value                            Description
#---------       ---------                        -------------
~Curve Information Section
#MNEM.UNIT    API CODE                      : Curve description
#---.-----    --------                      : -----------------
DEPT .m                                      : 
Vp   .km/s                                   : Vp(in Km/s)
Vs   .km/s                                   : Vs(in km/s)
GR   .GAPI                                   : Gamma Ray
RHOB .G/C3                                   : Bulk Density
~Ascii
# ...
   2.1755100e+03   1.2037200e+02   2.4617600e+02   5.6100000e+01   2.1200000e+00
   2.1756624e+03   1.1966500e+02   2.4597300e+02   5.5405000e+01   2.1310000e+00
   2.1758149e+03   1.1828300e+02   2.4234200e+02   5.5069000e+01   2.1450000e+00
   2.1759673e+03   1.1730300e+02   2.3676200e+02   5.5365000e+01   2.1570000e+00
   2.1761196e+03   1.1659500e+02   2.3014200e+02   5.7241000e+01   2.1610000e+00
   2.1762720e+03   1.1555800e+02   2.2319200e+02   5.7843000e+01   2.1650000e+00
   2.1764243e+03   1.1400200e+02   2.1819200e+02   5.6910000e+01   2.1700000e+00
   2.1765769e+03   1.1242300e+02   2.1426300e+02   5.7856000e+01   2.1700000e+00
   2.1767292e+03   1.1108300e+02   2.1172800e+02   5.9072000e+01   2.1670000e+00
   2.1768816e+03   1.0979600e+02   2.0950900e+02   5.9161000e+01   2.1620000e+00
   2.1770339e+03   1.0867300e+02   2.0786200e+02   5.8840000e+01   2.1560000e+00
   2.1771865e+03   1.0773800e+02   2.0627700e+02   5.9303000e+01   2.1470000e+00
   2.1773389e+03   1.0720300e+02   2.0570900e+02   6.0025000e+01   2.1330000e+00
   2.1774912e+03   1.0717100e+02   2.0664500e+02   6.0609000e+01   2.1180000e+00
   2.1776436e+03   1.0747900e+02   2.0903900e+02   6.3077000e+01   2.1040000e+00
   2.1777961e+03   1.0814900e+02   2.1250300e+02   6.4971000e+01   2.0940000e+00
   2.1779485e+03   1.0920800e+02   2.1728000e+02   6.6464000e+01   2.0970000e+00
   2.1781008e+03   1.1075700e+02   2.2271400e+02   6.8810000e+01   2.1130000e+00
   2.1782532e+03   1.1238100e+02   2.2719200e+02   6.7064000e+01   2.1220000e+00
   2.1784055e+03   1.1407500e+02   2.3094200e+02   6.3962000e+01   2.1100000e+00
   2.1785581e+03   1.1542700e+02   2.3241900e+02   6.3200000e+01   2.0970000e+00
   2.1787104e+03   1.1633100e+02   2.3382600e+02   6.0911000e+01   2.0920000e+00
   2.1788628e+03   1.1673100e+02   2.3476800e+02   5.6853000e+01   2.0920000e+00
   2.1790151e+03   1.1679800e+02   2.3610000e+02   5.4725000e+01   2.0920000e+00
   2.1791677e+03   1.1666900e+02   2.3578900e+02   5.4526000e+01   2.0940000e+00
   2.1793201e+03   1.1642000e+02   2.3445200e+02   5.2909000e+01   2.0940000e+00
   2.1794724e+03   1.1619400e+02   2.3258200e+02   5.1533000e+01   2.0960000e+00
   2.1796248e+03   1.1586600e+02   2.2972800e+02   5.2572000e+01   2.0970000e+00
   2.1797773e+03   1.1533000e+02   2.2737200e+02   5.4628000e+01   2.0920000e+00
   2.1799297e+03   1.1459500e+02   2.2532600e+02   5.7074000e+01   2.0870000e+00
   2.1800820e+03   1.1429600e+02   2.2422400e+02   5.7296000e+01   2.0880000e+00
   2.1802344e+03   1.1476800e+02   2.2298200e+02   5.6310000e+01   2.0960000e+00
   2.1803867e+03   1.1547000e+02   2.2249600e+02   5.7843000e+01   2.1030000e+00
   2.1805393e+03   1.1610700e+02   2.2264800e+02   5.8557000e+01   2.1030000e+00
   2.1806917e+03   1.1656400e+02   2.2314000e+02   5.6228000e+01   2.0970000e+00
   2.1808440e+03   1.1692300e+02   2.2342300e+02   5.5055000e+01   2.0950000e+00
   2.1809963e+03   1.1715000e+02   2.2410300e+02   5.7208000e+01   2.0970000e+00
   2.1811489e+03   1.1720700e+02   2.2516700e+02   6.0030000e+01   2.1050000e+00
   2.1813013e+03   1.1707000e+02   2.2687500e+02   5.9986000e+01   2.1120000e+00
   2.1814536e+03   1.1670000e+02   2.2801000e+02   5.9540000e+01   2.1130000e+00
   2.1816060e+03   1.1612200e+02   2.2865500e+02   6.1046000e+01   2.1130000e+00
   2.1817585e+03   1.1527000e+02   2.2894300e+02   6.0849000e+01   2.1130000e+00
   2.1819109e+03   1.1405400e+02   2.2856700e+02   5.7750000e+01   2.1150000e+00
   2.1820632e+03   1.1304200e+02   2.2876100e+02   5.4578000e+01   2.1200000e+00
   2.1822156e+03   1.1249500e+02   2.2811400e+02   5.3245000e+01   2.1240000e+00
   2.1823679e+03   1.1245500e+02   2.2796700e+02   5.4523000e+01   2.1220000e+00
   2.1825205e+03   1.1280600e+02   2.2790500e+02   5.7104000e+01   2.1180000e+00
   2.1826729e+03   1.1344500e+02   2.2756800e+02   5.8024000e+01   2.1140000e+00
   2.1828252e+03   1.1442000e+02   2.2826700e+02   6.1461000e+01   2.1140000e+00
   2.1829775e+03   1.1530500e+02   2.2991400e+02   6.7460000e+01   2.1290000e+00
   2.1831301e+03   1.1588400e+02   2.3146800e+02   6.9143000e+01   2.1500000e+00
   2.1832825e+03   1.1626100e+02   2.3277000e+02   6.8756000e+01   2.1540000e+00
   2.1834348e+03   1.1677000e+02   2.3347000e+02   6.6245000e+01   2.1360000e+00
   2.1835872e+03   1.1749400e+02   2.3447500e+02   5.9377000e+01   2.1130000e+00
   2.1837397e+03   1.1829700e+02   2.3555700e+02   5.5244000e+01   2.0990000e+00
   2.1838921e+03   1.1860200e+02   2.3574700e+02   5.5391000e+01   2.0970000e+00
   2.1840444e+03   1.1805900e+02   2.3514600e+02   5.4479000e+01   2.1050000e+00
   2.1841968e+03   1.1704400e+02   2.3417400e+02   5.5074000e+01   2.1130000e+00
   2.1843491e+03   1.1581800e+02   2.3396600e+02   6.0405000e+01   2.1150000e+00
   2.1845017e+03   1.1444000e+02   2.3489100e+02   6.6905000e+01   2.1200000e+00
   2.1846541e+03   1.1405100e+02   2.3791900e+02   7.0744000e+01   2.1250000e+00
   2.1848064e+03   1.1491700e+02   2.4210000e+02   7.3177000e+01   2.1060000e+00
   2.1849587e+03   1.1786600e+02   2.4930100e+02   7.7433000e+01   2.0610000e+00
   2.1851113e+03   1.2012700e+02   2.5889600e+02   8.1457000e+01   2.0330000e+00
   2.1852637e+03   1.2258900e+02   2.6970100e+02   8.3079000e+01   2.0630000e+00
   2.1854160e+03   1.2309300e+02   2.7764300e+02   8.3204000e+01   2.1280000e+00
   2.1855684e+03   1.2154500e+02   2.7815300e+02   7.8925000e+01   2.1740000e+00
   2.1857209e+03   1.1854700e+02   2.7807000e+02   7.2571000e+01   2.1960000e+00
   2.1858733e+03   1.1514900e+02   2.7399900e+02   7.2415000e+01   2.2110000e+00
   2.1860256e+03   1.1220100e+02   2.6759500e+02   7.5417000e+01   2.2140000e+00
   2.1861780e+03   1.0947900e+02   2.5606600e+02   7.5889000e+01   2.2090000e+00
   2.1863303e+03   1.0750300e+02   2.4753000e+02   7.8191000e+01   2.2130000e+00
   2.1864829e+03   1.0710500e+02   2.4116300e+02   8.1829000e+01   2.2240000e+00
   2.1866353e+03   1.0765500e+02   2.3943600e+02   8.0312000e+01   2.2340000e+00
   2.1867876e+03   1.0842900e+02   2.3844500e+02   7.6961000e+01   2.2440000e+00
   2.1869399e+03   1.0905200e+02   2.3855400e+02   7.7671000e+01   2.2430000e+00
   2.1870925e+03   1.0951700e+02   2.3880900e+02   7.6051000e+01   2.2180000e+00
   2.1872449e+03   1.0939700e+02   2.3799900e+02   6.7439000e+01   2.1880000e+00
   2.1873972e+03   1.0880600e+02   2.3573000e+02   6.1017000e+01   2.1720000e+00
   2.1875496e+03   1.0797500e+02   2.3255700e+02   5.9885000e+01   2.1680000e+00
   2.1877021e+03   1.0698500e+02   2.2923800e+02   5.9663000e+01   2.1700000e+00
   2.1878545e+03   1.0577800e+02   2.2578100e+02   5.9524000e+01   2.1750000e+00
   2.1880068e+03   1.0447300e+02   2.2153900e+02   6.0482000e+01   2.1810000e+00
   2.1881592e+03   1.0331700e+02   2.1771100e+02   6.2372000e+01   2.1880000e+00
   2.1883115e+03   1.0234800e+02   2.1564200e+02   6.4543000e+01   2.1920000e+00
   2.1884641e+03   1.0183700e+02   2.1527900e+02   6.5011000e+01   2.1900000e+00
   2.1886165e+03   1.0130300e+02   2.1454800e+02   6.4116000e+01   2.1930000e+00
   2.1887688e+03   1.0097700e+02   2.1312400e+02   6.7932000e+01   2.2190000e+00
   2.1889211e+03   1.0119800e+02   2.1176600e+02   7.7238000e+01   2.2640000e+00
   2.1890737e+03   1.0210000e+02   2.1417200e+02   8.3787000e+01   2.2940000e+00
   2.1892261e+03   1.0305100e+02   2.1427100e+02   8.0755000e+01   2.2800000e+00
   2.1893784e+03   1.0363700e+02   2.1195700e+02   7.1845000e+01   2.2380000e+00
   2.1895308e+03   1.0390400e+02   2.0969200e+02   6.6393000e+01   2.2140000e+00
   2.1896831e+03   1.0391300e+02   2.1229400e+02   6.7607000e+01   2.2170000e+00
   2.1898357e+03   1.0370200e+02   2.1319800e+02   6.9625000e+01   2.2180000e+00
   2.1899880e+03   1.0313900e+02   2.1335700e+02   6.7641000e+01   2.2050000e+00
   2.1901404e+03   1.0218400e+02   2.1155600e+02   6.5498000e+01   2.1900000e+00
   2.1902927e+03   1.0112800e+02   2.0979300e+02   6.5054000e+01   2.1930000e+00
   2.1904453e+03   1.0042800e+02   2.0843200e+02   6.6482000e+01   2.2260000e+00
