~Version Information Section
VERS. 2.0 : CWLS Log ASCII Standard - VERSION 2.0
WRAP. NO  : One Line per depth Step
~Well Information Section
#MNEM.UNIT                     Data                         Information
#----------   ------------------------------------------   ----------------
STRT.M                             2100.0000 : Start Depth
STOP.M                            2300.0000 : Stop Depth
NULL.        -999.25                        : Null Value
COMP.UPDATED NORSKHYDR                      : Company Name
WELL.        WELL-5                        : Well
FLD .        GLITNE                         : Field
LOC .        META                           : Location
PROV.                                       : Province
CNTY.                                       : County
STAT.        META                           : State/Province
CTRY.        NORWAY                       : Nation
SRVC.        30                             : Logging Company Code
DATE.        10-20-XXXX                    : Run Date
UWI .        WELL0005                       : Unique Well Identifier
API .                                       : API Number
~Parameter Information Block
#MNEM.UNIT       Value                            Description
#---------       ---------                        -------------
~Curve Information Section
#MNEM.UNIT    API CODE                      : Curve description
#---.-----    --------                      : -----------------
DEPT .m                                      : 
Vp   .km/s                                   : Vp(in Km/s)
Vs   .km/s                                   : Vs(in km/s)
GR   .GAPI                                   : Gamma Ray
RHOB .G/C3                                   : Bulk Density
~Ascii
# ...
   2.1604224e+03   1.2320400e+02   3.6428200e+02   8.2678000e+01   1.8550000e+00
   2.1605747e+03   1.2337700e+02   3.7047300e+02   8.3291000e+01   1.8840000e+00
   2.1607273e+03   1.2380100e+02   3.6418800e+02   8.1620000e+01   1.9400000e+00
   2.1608796e+03   1.2459500e+02   3.4424800e+02   8.0078000e+01   2.0230000e+00
   2.1610320e+03   1.2618000e+02   3.3608100e+02   7.8066000e+01   2.0660000e+00
   2.1611843e+03   1.2755200e+02   3.3885100e+02   7.6624000e+01   2.0650000e+00
   2.1613369e+03   1.2851200e+02   3.5117900e+02   8.0955000e+01   2.0920000e+00
   2.1614893e+03   1.2812000e+02   3.5759800e+02   8.4607000e+01   2.1450000e+00
   2.1616416e+03   1.2720300e+02   3.5245600e+02   8.2075000e+01   2.1580000e+00
   2.1617939e+03   1.2592500e+02   3.4834400e+02   7.7451000e+01   2.1570000e+00
   2.1619465e+03   1.2520300e+02   3.5098800e+02   7.4598000e+01   2.2210000e+00
   2.1620989e+03   1.2422500e+02   3.5502800e+02   7.6301000e+01   2.3020000e+00
   2.1622512e+03   1.2344000e+02   3.4953500e+02   7.9566000e+01   2.3150000e+00
   2.1624036e+03   1.2305900e+02   3.4781600e+02   8.0367000e+01   2.2760000e+00
   2.1625559e+03   1.2294100e+02   3.4479300e+02   8.0255000e+01   2.2420000e+00
   2.1627085e+03   1.2294300e+02   3.4309200e+02   7.9407000e+01   2.2530000e+00
   2.1628608e+03   1.2275800e+02   3.3448800e+02   8.0101000e+01   2.2950000e+00
   2.1630132e+03   1.2259000e+02   3.2476100e+02   8.1329000e+01   2.3240000e+00
   2.1631655e+03   1.2252500e+02   3.1681600e+02   8.2815000e+01   2.3270000e+00
   2.1633181e+03   1.2255100e+02   3.1406100e+02   8.4808000e+01   2.3160000e+00
   2.1634705e+03   1.2261400e+02   3.1334100e+02   8.3832000e+01   2.2870000e+00
   2.1636228e+03   1.2267800e+02   3.1648600e+02   8.1057000e+01   2.1990000e+00
   2.1637751e+03   1.2274100e+02   3.1425000e+02   7.8872000e+01   2.0810000e+00
   2.1639277e+03   1.2280400e+02   3.1235200e+02   7.7149000e+01   2.0280000e+00
   2.1640801e+03   1.2286800e+02   3.1084500e+02   7.6242000e+01   2.0370000e+00
   2.1642324e+03   1.2319500e+02   3.1660800e+02   7.6866000e+01   2.0470000e+00
   2.1643848e+03   1.2392200e+02   3.2945600e+02   7.9220000e+01   2.0270000e+00
   2.1645371e+03   1.2527600e+02   3.4418200e+02   7.9782000e+01   1.9940000e+00
   2.1646897e+03   1.2634900e+02   3.4527500e+02   7.6238000e+01   1.9780000e+00
   2.1648420e+03   1.2688600e+02   3.3927300e+02   7.3558000e+01   1.9740000e+00
   2.1649944e+03   1.2711900e+02   3.3422300e+02   7.3892000e+01   1.9780000e+00
   2.1651467e+03   1.2706100e+02   3.3588600e+02   7.2919000e+01   1.9970000e+00
   2.1652993e+03   1.2645700e+02   3.4206900e+02   7.1038000e+01   2.0230000e+00
   2.1654517e+03   1.2539500e+02   3.4264800e+02   7.2338000e+01   2.0200000e+00
   2.1656040e+03   1.2468500e+02   3.3852200e+02   7.4145000e+01   1.9850000e+00
   2.1657563e+03   1.2455600e+02   3.4176000e+02   7.3074000e+01   1.9700000e+00
   2.1659089e+03   1.2474500e+02   3.5049600e+02   7.3336000e+01   1.9540000e+00
   2.1660613e+03   1.2351400e+02   3.5117300e+02   7.7442000e+01   1.8610000e+00
   2.1662136e+03   1.2279200e+02   3.4438100e+02   8.1026000e+01   1.7530000e+00
   2.1663660e+03   1.2288600e+02   3.3788600e+02   7.9173000e+01   1.7370000e+00
   2.1665183e+03   1.2308400e+02   3.3384100e+02   7.3996000e+01   1.7660000e+00
   2.1666709e+03   1.2336500e+02   3.3388000e+02   7.1745000e+01   1.7640000e+00
   2.1668232e+03   1.2387100e+02   3.3324500e+02   7.3326000e+01   1.7810000e+00
   2.1669756e+03   1.2470300e+02   3.3364200e+02   7.6534000e+01   1.8520000e+00
   2.1671279e+03   1.2589700e+02   3.4101900e+02   7.8892000e+01   1.9080000e+00
   2.1672805e+03   1.2681800e+02   3.4233900e+02   7.8545000e+01   1.9360000e+00
   2.1674329e+03   1.2719200e+02   3.3835100e+02   7.8955000e+01   1.9770000e+00
   2.1675852e+03   1.2744600e+02   3.3702000e+02   8.0448000e+01   2.0190000e+00
   2.1677375e+03   1.2791700e+02   3.4387400e+02   8.0211000e+01   2.0320000e+00
   2.1678901e+03   1.2903700e+02   3.5905600e+02   8.0618000e+01   2.0260000e+00
   2.1680425e+03   1.3012500e+02   3.6115500e+02   8.2863000e+01   2.0180000e+00
   2.1681948e+03   1.3023000e+02   3.6028900e+02   8.5158000e+01   1.9920000e+00
   2.1683472e+03   1.2971900e+02   3.6042600e+02   8.4677000e+01   1.9270000e+00
   2.1684995e+03   1.2962800e+02   3.6242700e+02   8.1604000e+01   1.8360000e+00
   2.1686521e+03   1.3364200e+02   3.5436700e+02   8.0608000e+01   1.7670000e+00
   2.1688044e+03   1.4116500e+02   3.4467700e+02   8.0037000e+01   1.7530000e+00
   2.1689568e+03   1.4972100e+02   3.3858100e+02   7.7553000e+01   1.7840000e+00
   2.1691091e+03   1.5373600e+02   3.3810200e+02   7.9757000e+01   1.7790000e+00
   2.1692617e+03   1.5147400e+02   3.3996500e+02   8.4869000e+01   1.7170000e+00
   2.1694141e+03   1.4063000e+02   3.3699700e+02   8.2695000e+01   1.6920000e+00
   2.1695664e+03   1.2894100e+02   3.3120500e+02   7.9200000e+01   1.7130000e+00
   2.1697188e+03   1.2501600e+02   3.3508400e+02   7.8509000e+01   1.7150000e+00
   2.1698713e+03   1.2375600e+02   3.4307700e+02   7.6693000e+01   1.7190000e+00
   2.1700237e+03   1.2092400e+02   3.5068100e+02   7.4616000e+01   1.7870000e+00
   2.1701760e+03   1.1779900e+02   3.4904200e+02   7.3720000e+01   1.9220000e+00
   2.1703284e+03   1.1449500e+02   3.3931500e+02   7.3954000e+01   2.0550000e+00
   2.1704807e+03   1.1235600e+02   3.2446700e+02   7.4252000e+01   2.1410000e+00
   2.1706333e+03   1.1275100e+02   3.0718800e+02   7.7256000e+01   2.2050000e+00
   2.1707856e+03   1.1542100e+02   2.9948300e+02   8.0749000e+01   2.2610000e+00
   2.1709380e+03   1.1927400e+02   2.9990300e+02   8.1841000e+01   2.2760000e+00
   2.1710903e+03   1.2282100e+02   3.0494100e+02   8.1740000e+01   2.2440000e+00
   2.1712429e+03   1.2697200e+02   3.0076900e+02   7.8826000e+01   2.1990000e+00
   2.1713953e+03   1.3147200e+02   2.9623900e+02   7.8100000e+01   2.1700000e+00
   2.1715476e+03   1.3517900e+02   2.8808400e+02   8.0136000e+01   2.1770000e+00
   2.1717000e+03   1.3578500e+02   2.8783400e+02   8.1014000e+01   2.2050000e+00
   2.1718525e+03   1.3157700e+02   2.8159900e+02   8.2962000e+01   2.2150000e+00
   2.1720049e+03   1.2413700e+02   2.7066900e+02   8.0513000e+01   2.2030000e+00
   2.1721572e+03   1.1548200e+02   2.5992300e+02   7.5045000e+01   2.1890000e+00
   2.1723096e+03   1.1039400e+02   2.4728800e+02   7.2582000e+01   2.1760000e+00
   2.1724619e+03   1.0864200e+02   2.3781700e+02   7.0448000e+01   2.1580000e+00
   2.1726145e+03   1.0875800e+02   2.3175700e+02   6.4040000e+01   2.1370000e+00
   2.1727668e+03   1.0969200e+02   2.3398400e+02   5.9325000e+01   2.1270000e+00
   2.1729192e+03   1.1118500e+02   2.3815400e+02   5.9446000e+01   2.1370000e+00
   2.1730715e+03   1.1277100e+02   2.4236200e+02   6.0383000e+01   2.1600000e+00
   2.1732241e+03   1.1324500e+02   2.4482000e+02   6.1569000e+01   2.1800000e+00
   2.1733765e+03   1.1297100e+02   2.4725500e+02   6.6148000e+01   2.1760000e+00
   2.1735288e+03   1.1224900e+02   2.4213200e+02   7.2969000e+01   2.1470000e+00
   2.1736812e+03   1.1125200e+02   2.4066300e+02   7.7163000e+01   2.1210000e+00
   2.1738337e+03   1.1012400e+02   2.3435400e+02   7.4918000e+01   2.1170000e+00
   2.1739861e+03   1.0958500e+02   2.3125900e+02   6.8454000e+01   2.1310000e+00
   2.1741384e+03   1.1051100e+02   2.2880900e+02   6.3651000e+01   2.1570000e+00
   2.1742908e+03   1.1221900e+02   2.2641500e+02   6.4380000e+01   2.1850000e+00
   2.1744431e+03   1.1417600e+02   2.2586000e+02   7.0081000e+01   2.1960000e+00
   2.1745957e+03   1.1535000e+02   2.2463600e+02   7.4627000e+01   2.1770000e+00
   2.1747480e+03   1.1555100e+02   2.2739000e+02   7.2480000e+01   2.1390000e+00
   2.1749004e+03   1.1482300e+02   2.3079700e+02   6.5408000e+01   2.1080000e+00
   2.1750527e+03   1.1468800e+02   2.3516700e+02   5.7829000e+01   2.0970000e+00
   2.1752053e+03   1.1587200e+02   2.3981600e+02   5.4499000e+01   2.1010000e+00
   2.1753577e+03   1.1865300e+02   2.4465200e+02   5.5591000e+01   2.1110000e+00
