~Version Information Section
VERS. 2.0 : CWLS Log ASCII Standard - VERSION 2.0
WRAP. NO  : One Line per depth Step
~Well Information Section
#MNEM.UNIT                     Data                         Information
#----------   ------------------------------------------   ----------------
STRT.M                             1993.0000 : Start Depth
STOP.M                            2191.0000 : Stop Depth
NULL.        -999.25                        : Null Value
COMP.UPDATED NORSKHYDR                      : Company Name
WELL.        WELL-4                        : Well
FLD .        GLITNE                         : Field
LOC .        META                           : Location
PROV.                                       : Province
CNTY.                                       : County
STAT.        META                           : State/Province
CTRY.        NORWAY                       : Nation
SRVC.        30                             : Logging Company Code
DATE.        10-20-XXXX                    : Run Date
UWI .        WELL0004                       : Unique Well Identifier
API .                                       : API Number
~Parameter Information Block
#MNEM.UNIT       Value                            Description
#---------       ---------                        -------------
~Curve Information Section
#MNEM.UNIT    API CODE                      : Curve description
#---.-----    --------                      : -----------------
DEPT .m                                      : 
Vp   .km/s                                   : Vp(in Km/s)
RHOB .G/C3                                   : Bulk Density
GR   .GAPI                                   : Gamma Ray
~Ascii
# ...
    2054.70557        2.43450        2.28440       98.24500
    2054.85791        2.51901        2.26830       99.77990
    2055.01050        2.48816        2.26550      105.19900
    2055.16284        2.44035        2.25230      106.50520
    2055.31519        2.54424        2.25820      102.24330
    2055.46753        2.54849        2.26450       99.04690
    2055.62012        2.53788        2.26730       97.08710
    2055.77246        2.53577        2.27630       94.15750
    2055.92480        2.57868        2.27600       92.55550
    2056.07715        2.58524        2.28650       92.07730
    2056.22949        2.49836        2.28710       91.61020
    2056.38208        2.49223        2.29790       91.63900
    2056.53442        2.47002        2.29450      100.00200
    2056.68677        2.47202        2.28410      102.69140
    2056.83911        2.46802        2.28420      101.70680
    2056.99170        2.46403        2.29180       95.87780
    2057.14404        2.41139        2.29470       97.30190
    2057.29639        2.37568        2.27960       95.34570
    2057.44873        2.30734        2.27320       95.95790
    2057.60132        2.30560        2.27590       96.70340
    2057.75366        2.27293        2.29250       97.71900
    2057.90601        2.37198        2.29600       96.90070
    2058.05835        2.43062        2.30030       98.12360
    2058.21069        2.45213        2.30750       94.33370
    2058.36328        2.46403        2.30830       91.45430
    2058.51562        2.42675        2.28990       92.05950
    2058.66797        2.36462        2.27370       95.51330
    2058.82031        2.36646        2.29400       91.74850
    2058.97290        2.36279        2.32280       91.24210
    2059.12524        2.35731        2.33220       91.36260
    2059.27759        2.40379        2.33900       88.92970
    2059.42993        2.42097        2.34130       90.53050
    2059.58252        2.46602        2.35370       89.87730
    2059.73486        2.41905        2.37230       91.00210
    2059.88721        2.38871        2.36740       85.81380
    2060.03955        2.39434        2.34240       85.36750
    2060.19189        2.38871        2.31840       85.86530
    2060.34448        2.38684        2.31700       89.07670
    2060.49683        2.36830        2.31770       88.83110
    2060.64917        2.34462        2.31340       85.53150
    2060.80151        2.37198        2.30470       83.27480
    2060.95410        2.39811        2.30280       83.71410
    2061.10645        2.39246        2.30830       83.97770
    2061.25879        2.38684        2.31450       87.76780
    2061.41113        2.36646        2.31160       90.38480
    2061.56372        2.34642        2.31120       88.42680
    2061.71606        2.34823        2.31880       91.68790
    2061.86841        2.40758        2.32770       93.94450
    2062.02075        2.39811        2.33530       88.67410
    2062.17310        2.38311        2.33850       84.81900
    2062.32568        2.40189        2.33300       85.36260
    2062.47803        2.40189        2.32080       89.22410
    2062.63037        2.35731        2.31330       87.77770
    2062.78271        2.35367        2.31710       86.04910
    2062.93530        2.35913        2.33350       91.65750
    2063.08765        2.33563        2.33900       91.73120
    2063.23999        2.35549        2.34340       91.92020
    2063.39233        2.35913        2.34750       91.83900
    2063.54492        2.35004        2.34780       90.02020
    2063.69727        2.39246        2.35740       90.60120
    2063.84961        2.43062        2.35720       91.24620
    2064.00195        2.45411        2.35500       94.70320
    2064.15430        2.47202        2.34210       96.48280
    2064.30688        2.45016        2.34200       90.72570
    2064.45923        2.46005        2.36130       92.79170
    2064.61157        2.45806        2.37580       90.99790
    2064.76392        2.45016        2.36410       91.91930
    2064.91650        2.46403        2.35260       84.58260
    2065.06885        2.46802        2.34960       84.28740
    2065.22119        2.47002        2.34680       86.68150
    2065.37354        2.46802        2.35890       98.39050
    2065.52588        2.46602        2.36540      100.02200
    2065.67847        2.46602        2.36860      103.38610
    2065.83081        2.48006        2.36920      102.76750
    2065.98315        2.48006        2.36150      105.37490
    2066.13550        2.48613        2.36950       89.46440
    2066.28809        2.55919        2.37280       87.52340
    2066.44043        2.52109        2.36390       89.88120
    2066.59277        2.53156        2.34510       99.76600
    2066.74512        2.48411        2.33650       93.86950
    2066.89771        2.45213        2.34610       89.80490
    2067.05005        2.49427        2.34390       92.63280
    2067.20239        2.53577        2.32430       86.58850
    2067.35474        2.55705        2.32160       84.15990
    2067.50708        2.54849        2.32760       89.94470
    2067.65967        2.62306        2.33580       81.90110
    2067.81201        2.71416        2.33200       83.54620
    2067.96436        2.69020        2.32570       91.73590
    2068.11670        2.67838        2.32840       92.26170
    2068.26929        2.59625        2.34970       90.82620
    2068.42163        2.51071        2.36870       90.66130
    2068.57397        2.50452        2.38160       92.36210
    2068.72632        2.52109        2.37720       85.41460
    2068.87891        2.52527        2.36520       93.52900
    2069.03125        2.53156        2.35900       87.76880
    2069.18359        2.52946        2.35170       90.38240
    2069.33594        2.51901        2.35680       87.68130
    2069.48828        2.53577        2.36250       85.22560
    2069.64087        2.55705        2.35950       81.89430
    2069.79321        2.59847        2.35490       78.27350
    2069.94556        2.62985        2.34940       76.57900
    2070.09790        2.66201        2.33880       85.88620
    2070.25049        2.66201        2.33260       86.91880
    2070.40283        2.61631        2.34570       85.95180
    2070.55518        2.60068        2.36470       84.81200
    2070.70752        2.56566        2.38120       85.14450
    2070.86011        2.53577        2.36950       84.00830
    2071.01245        2.54000        2.35620       81.38150
    2071.16479        2.56782        2.27770       82.25400
    2071.31714        2.60513        2.23280       79.21280
    2071.46948        2.67838        2.20160       73.42730
    2071.62207        2.63668        2.26370       77.27690
    2071.77441        2.65043        2.31540       76.34500
    2071.92676        2.69020        2.35300       81.17430
    2072.07910        2.69258        2.36470       83.54080
    2072.23169        2.79121        2.36690       83.68900
    2072.38403        2.80663        2.34780       83.04800
    2072.53638        2.80147        2.33340       89.16470
    2072.68872        2.82222        2.36750       86.58310
    2072.84131        2.80922        2.42870       86.86870
    2072.99365        2.72630        2.48230       93.99610
    2073.14600        2.66201        2.45660      100.75140
    2073.29834        2.60513        2.40850       99.07270
    2073.45068        2.57868        2.38000       93.26180
    2073.60327        2.58086        2.37690       95.24370
    2073.75562        2.56566        2.36660       90.74230
    2073.90796        2.60513        2.35010       82.62500
    2074.06030        2.56566        2.29190       88.23240
    2074.21289        2.59625        2.24920       87.63440
    2074.36523        2.73118        2.26020       89.68240
    2074.51758        2.72874        2.32570       93.18150
    2074.66992        2.70453        2.37410       96.91150
    2074.82251        2.61856        2.37620       95.68750
    2074.97485        2.53156        2.37460       86.14350
