~Version Information Section
VERS. 2.0 : CWLS Log ASCII Standard - VERSION 2.0
WRAP. NO  : One Line per depth Step
~Well Information Section
#MNEM.UNIT                     Data                         Information
#----------   ------------------------------------------   ----------------
STRT.M                             1360.0000 : Start Depth
STOP.M                            2763.0000 : Stop Depth
NULL.        -999.25                        : Null Value
COMP.UPDATED NORSKHYDR                      : Company Name
WELL.        WELL-1                        : Well
FLD .        GLITNE                          : Field
LOC .        META                           : Location
PROV.                                       : Province
CNTY.                                       : County
STAT.        META                           : State/Province
CTRY.        NORWAY                         : Nation
SRVC.        30                             : Logging Company Code
DATE.        11-20-XXXX                    : Run Date
UWI .        WELL0001                       : Unique Well Identifier
API .                                       : API Number
~Parameter Information Block
#MNEM.UNIT       Value                            Description
#---------       ---------                        -------------
~Curve Information Section
#MNEM.UNIT    API CODE                      : Curve description
#---.-----    --------                      : -----------------
DEPT .M                                      : 
Vp   .KM/S                                   : Vp
RHOB .G/C3                                   : Bulk Density
GR   .GAPI                                   : Gamma Ray
~Ascii
# ...
    2013.37500        2.13918        2.12630       36.38960
    2013.50000        2.14072        2.13080       36.69710
    2013.62500        2.14083        2.13190       37.64810
    2013.75000        2.14192        2.12910       37.60970
    2013.87500        2.14880        2.12570       37.08510
    2014.00000        2.15958        2.13050       36.72610
    2014.12500        2.16554        2.13830       37.13930
    2014.25000        2.16554        2.14740       40.34320
    2014.37500        2.16686        2.15160       41.30250
    2014.50000        2.16552        2.15080       41.37390
    2014.62500        2.15989        2.15260       40.38830
    2014.75000        2.15354        2.15740       38.73380
    2014.87500        2.16136        2.15950       39.52840
    2015.00000        2.15870        2.16110       39.39080
    2015.12500        2.16251        2.15890       39.77870
    2015.25000        2.16227        2.15290       39.78340
    2015.37500        2.15600        2.15610       39.73610
    2015.50000        2.15026        2.14860       40.77460
    2015.62500        2.15026        2.15360       41.08220
    2015.75000        2.15833        2.15650       41.58840
    2015.87500        2.17490        2.15430       41.30400
    2016.00000        2.18827        2.15440       41.49280
    2016.12500        2.19149        2.15600       42.59880
    2016.25000        2.19473        2.16180       42.31690
    2016.37500        2.20923        2.16510       42.74140
    2016.50000        2.24466        2.16600       42.09850
    2016.62500        2.18679        2.16500       40.57880
    2016.75000        2.06325        2.16020       38.93180
    2016.87500        1.97338        2.16490       38.09280
    2017.00000        1.97863        2.15870       38.37470
    2017.12500        1.96528        2.15170       41.22920
    2017.25000        2.00252        2.13170       42.17840
    2017.37500        2.11241        2.07080       42.64700
    2017.50000        2.24721        1.92900       42.86720
    2017.62500        2.22868        1.88180       39.78280
    2017.75000        2.21045        1.89420       42.70480
    2017.87500        2.20023        1.98170       41.48440
    2018.00000        2.18013        2.11020       42.35130
    2018.12500        2.15948        2.16410       44.28320
    2018.25000        2.15385        2.16570       43.95460
    2018.37500        2.15229        2.16980       44.31340
    2018.50000        2.14789        2.16820       43.21740
    2018.62500        2.14648        2.16460       43.39700
    2018.75000        2.14426        2.16540       43.56790
    2018.87500        2.14043        2.16060       43.49810
    2019.00000        2.13901        2.16600       44.61270
    2019.12500        2.14055        2.16020       43.48500
    2019.25000        2.13578        2.14820       46.28440
    2019.37500        2.13978        2.13950       48.16530
    2019.50000        2.14412        2.14240       48.64260
    2019.62500        2.14044        2.13760       48.82060
    2019.75000        2.14973        2.14720       49.25640
    2019.87500        2.14150        2.14750       50.41710
    2020.00000        2.13561        2.14440       51.47340
    2020.12500        2.13333        2.14840       52.65400
    2020.25000        2.13552        2.14840       54.31200
    2020.37500        2.14352        2.15300       56.98830
    2020.50000        2.15596        2.15430       63.44740
    2020.62500        2.17256        2.15350       68.82130
    2020.75000        2.17809        2.15280       69.27040
    2020.87500        2.16936        2.15420       65.33250
    2021.00000        2.15259        2.15260       58.77980
    2021.12500        2.14482        2.13880       50.83400
    2021.25000        2.12232        2.12580       49.25150
    2021.37500        2.11554        2.12040       49.11780
    2021.50000        2.11803        2.12430       48.71890
    2021.62500        2.12172        2.13070       47.95120
    2021.75000        2.11950        2.13550       47.59440
    2021.87500        2.11047        2.14390       46.26160
    2022.00000        2.11590        2.15270       47.14670
    2022.12500        2.12048        2.15720       47.32750
    2022.25000        2.12153        2.15400       46.73430
    2022.37500        2.11839        2.15080       45.19410
    2022.50000        2.10937        2.15180       41.32370
    2022.62500        2.10934        2.15230       43.94480
    2022.75000        2.11284        2.14750       45.08950
    2022.87500        2.11567        2.13900       46.73780
    2023.00000        2.11923        2.14060       46.49460
    2023.12500        2.12626        2.14220       41.68890
    2023.25000        2.12930        2.14760       40.91990
    2023.37500        2.14762        2.14770       40.61280
    2023.50000        2.13927        2.14620       41.89400
    2023.62500        2.12493        2.15080       44.42810
    2023.75000        2.12145        2.15400       46.99360
    2023.87500        2.12571        2.15290       47.71440
    2024.00000        2.11814        2.14690       47.53500
    2024.12500        2.09981        2.11890       44.19790
    2024.25000        2.12899        2.06610       42.15460
    2024.37500        2.16553        2.00840       42.14780
    2024.50000        2.15124        1.95150       43.29480
    2024.62500        2.14503        1.96430       45.29410
    2024.75000        2.13174        2.01310       43.89100
    2024.87500        2.12559        2.07740       43.60610
    2025.00000        2.12478        2.13710       42.53240
    2025.12500        2.12548        2.15310       41.03080
    2025.25000        2.12404        2.15280       42.08290
    2025.37500        2.12404        2.15570       41.26270
    2025.50000        2.12278        2.15820       41.35960
    2025.62500        2.12219        2.15820       41.45300
    2025.75000        2.12100        2.15820       41.34660
    2025.87500        2.11798        2.15820       41.57290
    2026.00000        2.11496        2.15820       43.95670
    2026.12500        2.13515        2.16310       44.52790
    2026.25000        2.14083        2.16920       44.29770
    2026.37500        2.14883        2.17220       44.32760
    2026.50000        2.16306        2.17380       44.32870
    2026.62500        2.17526        2.16160       43.19860
    2026.75000        2.20103        2.15350       42.94230
    2026.87500        2.19910        2.14710       40.57140
    2027.00000        2.12053        2.14500       40.38130
    2027.12500        2.03819        2.15230       40.19830
    2027.25000        1.99549        2.15230       38.07100
    2027.37500        1.94841        2.10560       35.94360
    2027.50000        2.04782        1.98240       35.20080
    2027.62500        2.13253        1.82230       38.94610
    2027.75000        2.20176        1.68940       42.88600
    2027.87500        2.25208        1.65490       45.03340
    2028.00000        2.27638        1.73290       45.47150
    2028.12500        2.27290        1.87780       45.49710
    2028.25000        2.31327        2.01150       44.77270
    2028.37500        2.25810        2.09540       46.94650
    2028.50000        2.20784        2.12710       48.26790
    2028.62500        2.17040        2.12870       47.00970
    2028.75000        1.98839        2.09200       46.75020
    2028.87500        1.79076        2.07280       43.57190
    2029.00000        1.76993        2.04220       41.36630
    2029.12500        1.79822        1.98260       42.01020
    2029.25000        1.85181        1.91850       44.63500
    2029.37500        1.96243        1.76870       47.70680
    2029.50000        2.22372        1.69620       53.24320
    2029.62500        2.18448        1.68750       55.54620
    2029.75000        2.16691        1.75890       56.33430
    2029.87500        2.17015        1.91410       55.55450
    2030.00000        2.16444        2.04700       53.63220
