~Version Information Section
VERS. 2.0 : CWLS Log ASCII Standard - VERSION 2.0
WRAP. NO  : One Line per depth Step
~Well Information Section
#MNEM.UNIT                     Data                         Information
#----------   ------------------------------------------   ----------------
STRT.M                             200.0000 : Start Depth
STOP.M                            5021.0000 : Stop Depth
NULL.        -9999.00000                        : Null Value
COMP.UPDATED NORSKHYDR                      : Company Name
WELL.        WELL-3                        : Well
FLD .        GLITNE                          : Field
LOC .        META                           : Location
PROV.                                       : Province
CNTY.                                       : County
STAT.        META                           : State/Province
CTRY.        NORWAY                      : Nation
SRVC.        30                             : Logging Company Code
DATE.        10-20-XXXX                    : Run Date
UWI .        WELL0003                       : Unique Well Identifier
API .                                       : API Number
~Parameter Information Block
#MNEM.UNIT       Value                            Description
#---------       ---------                        -------------
~Curve Information Section
#MNEM.UNIT    API CODE                      : Curve description
#---.-----    --------                      : -----------------
DEPT .m                                      : 
Vp   .km/s                                   : Vp(in Km/s)
RHOB .G/C3                                   : Bulk Density
GR   .GAPI                                   : Gamma Ray
~Ascii
# ...
    4039.41089        4.43371        2.08930       16.64270
    4039.56323        4.43393        2.08010       16.13890
    4039.71558        4.43622        2.07620       15.35960
    4039.86792        4.44071        2.08330       14.53120
    4040.02051        4.44082        2.08660       14.14230
    4040.17285        4.44081        2.08200       14.53430
    4040.32520        4.44093        2.08400       15.23640
    4040.47754        4.44106        2.08590       15.88930
    4040.62988        4.43926        2.08590       16.54850
    4040.78247        4.43549        2.08200       17.46130
    4040.93481        4.43568        2.07880       17.89070
    4041.08716        4.43374        2.07160       16.94840
    4041.23950        4.43165        2.06580       16.17820
    4041.39209        4.43389        2.06830       15.84640
    4041.54443        4.42997        2.07810       15.69640
    4041.69678        4.43453        2.07680       15.61470
    4041.84912        4.44259        2.07680       16.16510
    4042.00171        4.44266        2.08200       17.37140
    4042.15405        4.44237        2.09180       18.34230
    4042.30640        4.43994        2.09050       18.27060
    4042.45874        4.43817        2.08010       17.66400
    4042.61108        4.44000        2.06970       17.60450
    4042.76367        4.43615        2.06770       17.67220
    4042.91602        4.43066        2.07230       17.67340
    4043.06836        4.41612        2.08330       17.67460
    4043.22070        4.41756        2.07620       17.65290
    4043.37329        4.44015        2.07290       17.38720
    4043.52563        4.43693        2.07290       16.86530
    4043.67798        4.43910        2.08260       16.82710
    4043.83032        4.44461        2.08140       17.64290
    4043.98291        4.45316        2.07810       18.97040
    4044.13525        4.46269        2.08070       19.38710
    4044.28760        4.45654        2.08330       19.57630
    4044.43994        4.45529        2.08270       19.41100
    4044.59229        4.44975        2.07420       19.40580
    4044.74487        4.44387        2.07680       19.04480
    4044.89722        4.44394        2.09050       17.95980
    4045.04956        4.44400        2.10090       16.46730
    4045.20190        4.44333        2.09310       15.67080
    4045.35449        4.44186        2.08010       15.41390
    4045.50684        4.44053        2.07750       15.25000
    4045.65918        4.43655        2.08720       15.54240
    4045.81152        4.43525        2.09960       16.23800
    4045.96411        4.43671        2.10090       17.09520
    4046.11646        4.43336        2.10610       17.82620
    4046.26880        4.43384        2.10810       17.84130
    4046.42114        4.44030        2.10090       18.47210
    4046.57349        4.44467        2.08730       19.22160
    4046.72607        4.44262        2.07680       19.15900
    4046.87842        4.43840        2.07290       18.44570
    4047.03076        4.43943        2.08010       17.28940
    4047.18311        4.44148        2.09050       16.79590
    4047.33569        4.44271        2.11320       17.31120
    4047.48804        4.44616        2.12050       18.05180
    4047.64038        4.44736        2.11780       17.97740
    4047.79272        4.44415        2.10420       17.74170
    4047.94531        4.44101        2.09900       18.22320
    4048.09766        4.44104        2.10090       19.15050
    4048.25000        4.44541        2.10420       19.30310
    4048.40234        4.44450        2.09640       19.30430
    4048.55469        4.44356        2.08270       19.20910
    4048.70728        4.44468        2.07810       18.71860
    4048.85962        4.44378        2.08070       17.92190
    4049.01196        4.44575        2.08460       17.54730
    4049.16431        4.44493        2.08460       17.81510
    4049.31689        4.44323        2.08140       18.16700
    4049.46924        4.44420        2.08920       17.89820
    4049.62158        4.44860        2.09770       17.72660
    4049.77393        4.45400        2.11000       17.75740
    4049.92651        4.45574        2.11130       17.96850
    4050.07886        4.45910        2.11460       18.45220
    4050.23120        4.45493        2.12240       19.17880
    4050.38354        4.44562        2.12370       20.29180
    4050.53589        4.44282        2.11140       21.29490
    4050.68848        4.44007        2.09770       21.68090
    4050.84082        4.44158        2.09380       21.18920
    4050.99316        4.44883        2.10410       19.97760
    4051.14551        4.45398        2.10810       18.24840
    4051.29810        4.44675        2.10090       17.29800
    4051.45044        4.44682        2.08600       17.75260
    4051.60278        4.44689        2.07490       18.55170
    4051.75513        4.44695        2.06970       19.28650
    4051.90771        4.44703        2.07100       19.39760
    4052.06006        4.44390        2.07490       19.55520
    4052.21240        4.43596        2.07750       19.71120
    4052.36475        4.43081        2.08070       19.99610
    4052.51709        4.42874        2.09370       20.17090
    4052.66968        4.43315        2.10220       20.20190
    4052.82202        4.42908        2.09830       19.74290
    4052.97437        4.41355        2.08790       18.62150
    4053.12671        4.40630        2.08660       17.91040
    4053.27930        4.42509        2.08660       18.13130
    4053.43164        4.43588        2.08200       18.34520
    4053.58398        4.43853        2.07880       18.80000
    4053.73633        4.43680        2.07940       19.16080
    4053.88892        4.43902        2.07880       19.48270
    4054.04126        4.43574        2.07420       18.77970
    4054.19360        4.43521        2.08010       17.88020
    4054.34595        4.43714        2.09180       17.76720
    4054.49829        4.44126        2.09830       18.29010
    4054.65088        4.44372        2.10610       18.72720
    4054.80322        4.44772        2.10160       18.06240
    4054.95557        4.44590        2.10150       17.36490
    4055.10791        4.43989        2.09310       16.63960
    4055.26050        4.43357        2.09700       16.39270
    4055.41284        4.43135        2.09770       16.62340
    4055.56519        4.43358        2.09700       17.03890
    4055.71753        4.42757        2.09640       16.69570
    4055.87012        4.42313        2.09050       16.03990
    4056.02246        4.42731        2.07620       15.82740
    4056.17480        4.43600        2.06640       16.25510
    4056.32715        4.43609        2.07740       16.99970
    4056.47949        4.43619        2.09700       17.30980
    4056.63208        4.43618        2.11000       17.99570
    4056.78442        4.43618        2.10030       18.20460
    4056.93677        4.43418        2.07820       18.01570
    4057.08911        4.42798        2.06510       17.58540
    4057.24170        4.42588        2.06510       17.25840
    4057.39404        4.43022        2.08980       17.17140
    4057.54639        4.43254        2.10460       17.08470
    4057.69873        4.43917        2.10290       17.02080
    4057.85132        4.44514        2.09410       17.03420
    4058.00366        4.44507        2.09110       16.91540
    4058.15601        4.43695        2.09960       17.21020
    4058.30835        4.43701        2.11130       18.31250
    4058.46069        4.43708        2.11260       19.16650
    4058.61328        4.43925        2.11130       19.70360
    4058.76562        4.44542        2.09190       19.81380
    4058.91797        4.44704        2.08590       19.53800
    4059.07031        4.44487        2.08400       19.07420
    4059.22290        4.44742        2.09630       18.74530
    4059.37524        4.44601        2.09960       18.93260
    4059.52759        4.44998        2.10030       19.59470
    4059.67993        4.44539        2.10160       20.18740
