~Version Information Section
VERS. 2.0 : CWLS Log ASCII Standard - VERSION 2.0
WRAP. NO  : One Line per depth Step
~Well Information Section
#MNEM.UNIT                     Data                         Information
#----------   ------------------------------------------   ----------------
STRT.M                             200.0000 : Start Depth
STOP.M                            5021.0000 : Stop Depth
NULL.        -9999.00000                        : Null Value
COMP.UPDATED NORSKHYDR                      : Company Name
WELL.        WELL-3                        : Well
FLD .        GLITNE                          : Field
LOC .        META                           : Location
PROV.                                       : Province
CNTY.                                       : County
STAT.        META                           : State/Province
CTRY.        NORWAY                      : Nation
SRVC.        30                             : Logging Company Code
DATE.        10-20-XXXX                    : Run Date
UWI .        WELL0003                       : Unique Well Identifier
API .                                       : API Number
~Parameter Information Block
#MNEM.UNIT       Value                            Description
#---------       ---------                        -------------
~Curve Information Section
#MNEM.UNIT    API CODE                      : Curve description
#---.-----    --------                      : -----------------
DEPT .m                                      : 
Vp   .km/s                                   : Vp(in Km/s)
RHOB .G/C3                                   : Bulk Density
GR   .GAPI                                   : Gamma Ray
~Ascii
# ...
     526.89563        1.89907    -9999.00000       65.43750
     527.04797        1.91548    -9999.00000       68.00000
     527.20038        1.92759    -9999.00000       74.18750
     527.35278        1.92455    -9999.00000       75.87500
     527.50519        1.92000    -9999.00000       75.56250
     527.65759        1.91548    -9999.00000       70.12500
     527.81000        1.90055    -9999.00000       66.93750
     527.96240        1.85854    -9999.00000       65.68750
     528.11481        1.86422    -9999.00000       71.12500
     528.26721        1.87569    -9999.00000       75.62500
     528.41962        1.88003    -9999.00000       74.31250
     528.57202        1.92911    -9999.00000       71.87500
     528.72443        1.94760    -9999.00000       70.50000
     528.87677        1.93678    -9999.00000       69.93750
     529.02917        1.92911    -9999.00000       70.37500
     529.18158        1.92759    -9999.00000       66.25000
     529.33398        1.92759    -9999.00000       70.37500
     529.48639        1.90798    -9999.00000       67.87500
     529.63879        1.93986    -9999.00000       74.50000
     529.79120        1.92455    -9999.00000       74.75000
     529.94360        1.87714    -9999.00000       74.75000
     530.09601        1.85712    -9999.00000       74.18750
     530.24841        1.83063    -9999.00000       74.18750
     530.40082        1.86565    -9999.00000       79.06250
     530.55322        1.88439    -9999.00000       77.62500
     530.70563        1.89317    -9999.00000       74.87500
     530.85797        1.89611    -9999.00000       73.18750
     531.01038        1.90055    -9999.00000       71.37500
     531.16278        1.89317    -9999.00000       71.75000
     531.31519        1.90500    -9999.00000       65.50000
     531.46759        1.90500    -9999.00000       65.87500
     531.62000        1.89907    -9999.00000       65.93750
     531.77240        1.89170    -9999.00000       71.18750
     531.92480        1.88877    -9999.00000       74.93750
     532.07721        1.89907    -9999.00000       74.81250
     532.22961        1.89317    -9999.00000       71.93750
     532.38202        1.89907    -9999.00000       68.12500
     532.53442        1.90798    -9999.00000       64.43750
     532.68683        1.92303    -9999.00000       67.25000
     532.83917        1.93217    -9999.00000       64.56250
     532.99158        1.95228    -9999.00000       67.62500
     533.14398        1.95698    -9999.00000       66.25000
     533.29639        1.94916    -9999.00000       67.06250
     533.44879        1.93986    -9999.00000       67.75000
     533.60120        1.92303    -9999.00000       65.87500
     533.75360        1.90500    -9999.00000       64.75000
     533.90601        1.87714    -9999.00000       63.81250
     534.05841        1.85712    -9999.00000       69.62500
     534.21082        1.84727    -9999.00000       77.25000
     534.36322        1.85289    -9999.00000       78.62500
     534.51562        1.86994    -9999.00000       77.68750
     534.66803        1.87281    -9999.00000       76.43750
     534.82037        1.88003    -9999.00000       74.31250
     534.97278        1.85854    -9999.00000       75.18750
     535.12518        1.84308    -9999.00000       73.12500
     535.27759        1.82515    -9999.00000       80.43750
     535.42999        1.80890    -9999.00000       79.31250
     535.58240        1.83614    -9999.00000       79.37500
     535.73480        1.85289    -9999.00000       78.43750
     535.88721        1.86565    -9999.00000       79.37500
     536.03961        1.87714    -9999.00000       79.93750
     536.19202        1.86565    -9999.00000       76.62500
     536.34442        1.85430    -9999.00000       70.50000
     536.49683        1.86565    -9999.00000       64.56250
     536.64917        1.86851    -9999.00000       62.75000
     536.80157        1.86422    -9999.00000       65.81250
     536.95398        1.87569    -9999.00000       69.00000
     537.10638        1.88731    -9999.00000       71.62500
     537.25879        1.89907    -9999.00000       69.06250
     537.41119        1.74421    -9999.00000       67.62500
     537.56360        1.86565    -9999.00000       68.25000
     537.71600        1.91548    -9999.00000       74.87500
     537.86841        1.90055    -9999.00000       81.93750
     538.02081        1.86851    -9999.00000       85.25000
     538.17322        1.91548    -9999.00000       81.75000
     538.32562        1.93524    -9999.00000       75.43750
     538.47803        1.85712    -9999.00000       68.37500
     538.63037        1.89170    -9999.00000       67.75000
     538.78278        1.90351    -9999.00000       72.37500
     538.93518        1.83476    -9999.00000       69.18750
     539.08759        1.89907    -9999.00000       73.12500
     539.23999        1.90351    -9999.00000       69.18750
     539.39240        1.88439    -9999.00000       76.37500
     539.54480        1.91698    -9999.00000       70.25000
     539.69720        1.89611    -9999.00000       74.31250
     539.84961        1.85854    -9999.00000       77.00000
     540.00201        1.83891    -9999.00000       84.75000
     540.15442        1.83063    -9999.00000       83.93750
     540.30682        1.83476    -9999.00000       81.56250
     540.45923        1.85008    -9999.00000       78.75000
     540.61157        1.86422    -9999.00000       86.12500
     540.76398        1.86565    -9999.00000       85.18750
     540.91638        1.85430    -9999.00000       87.93750
     541.06879        1.85289    -9999.00000       82.31250
     541.22119        1.84169    -9999.00000       85.06250
     541.37360        1.82789    -9999.00000       81.43750
     541.52600        1.83063    -9999.00000       82.12500
     541.67841        1.81294    -9999.00000       78.87500
     541.83081        1.80222    -9999.00000       81.93750
     541.98322        1.81024    -9999.00000       78.12500
     542.13562        1.80355    -9999.00000       82.37500
     542.28802        1.80355    -9999.00000       78.56250
     542.44043        1.81970    -9999.00000       82.68750
     542.59277        1.81699    -9999.00000       82.62500
     542.74518        1.83063    -9999.00000       81.68750
     542.89758        1.85289    -9999.00000       75.75000
     543.04999        1.85712    -9999.00000       74.06250
     543.20239        1.82378    -9999.00000       75.25000
     543.35480        1.85008    -9999.00000       77.06250
     543.50720        1.84727    -9999.00000       72.56250
     543.65961        1.84587    -9999.00000       75.81250
     543.81201        1.85854    -9999.00000       82.31250
     543.96442        1.85289    -9999.00000       85.43750
     544.11682        1.84727    -9999.00000       85.68750
     544.26923        1.82789    -9999.00000       78.37500
     544.42157        1.83891    -9999.00000       74.68750
     544.57397        1.86422    -9999.00000       69.93750
     544.72638        1.86994    -9999.00000       71.00000
     544.87878        1.88003    -9999.00000       76.93750
     545.03119        1.88439    -9999.00000       74.18750
     545.18359        1.87281    -9999.00000       73.12500
     545.33600        1.86994    -9999.00000       65.37500
     545.48840        1.87281    -9999.00000       69.56250
     545.64081        1.88148    -9999.00000       71.56250
     545.79321        1.88003    -9999.00000       71.43750
     545.94562        1.86422    -9999.00000       75.18750
     546.09802        1.85289    -9999.00000       75.81250
     546.25043        1.85712    -9999.00000       80.37500
     546.40277        1.85854    -9999.00000       77.06250
     546.55518        1.86851    -9999.00000       75.37500
     546.70758        1.87569    -9999.00000       76.43750
     546.85999        1.89317    -9999.00000       77.06250
     547.01239        1.89170    -9999.00000       73.62500
     547.16479        1.89170    -9999.00000       64.75000
