~Version Information Section
VERS. 2.0 : CWLS Log ASCII Standard - VERSION 2.0
WRAP. NO  : One Line per depth Step
~Well Information Section
#MNEM.UNIT                     Data                         Information
#----------   ------------------------------------------   ----------------
STRT.M                             1360.0000 : Start Depth
STOP.M                            2763.0000 : Stop Depth
NULL.        -999.25                        : Null Value
COMP.UPDATED NORSKHYDR                      : Company Name
WELL.        WELL-1                        : Well
FLD .        GLITNE                          : Field
LOC .        META                           : Location
PROV.                                       : Province
CNTY.                                       : County
STAT.        META                           : State/Province
CTRY.        NORWAY                         : Nation
SRVC.        30                             : Logging Company Code
DATE.        11-20-XXXX                    : Run Date
UWI .        WELL0001                       : Unique Well Identifier
API .                                       : API Number
~Parameter Information Block
#MNEM.UNIT       Value                            Description
#---------       ---------                        -------------
~Curve Information Section
#MNEM.UNIT    API CODE                      : Curve description
#---.-----    --------                      : -----------------
DEPT .M                                      : 
Vp   .KM/S                                   : Vp
RHOB .G/C3                                   : Bulk Density
GR   .GAPI                                   : Gamma Ray
~Ascii
# ...
    2281.37500        2.60024        2.25840       45.72610
    2281.50000        2.59407        2.24580       45.47640
    2281.62500        2.57792        2.24050       46.61360
    2281.75000        2.57491        2.24210       47.31010
    2281.87500        2.59514        2.24220       50.92420
    2282.00000        2.62417        2.24780       52.49000
    2282.12500        2.65132        2.24040       52.42240
    2282.25000        2.65349        2.21260       51.68070
    2282.37500        2.61972        2.17500       50.55140
    2282.50000        2.55806        2.15580       48.43330
    2282.62500        2.48224        2.14970       45.35760
    2282.75000        2.44918        2.17260       45.19210
    2282.87500        2.46095        2.21200       46.47330
    2283.00000        2.50886        2.24940       49.38640
    2283.12500        2.58182        2.28150       52.95980
    2283.25000        2.67714        2.26650       51.01180
    2283.37500        2.64860        2.25240       50.56690
    2283.50000        2.61535        2.24610       50.95290
    2283.62500        2.60651        2.25160       51.93140
    2283.75000        2.61432        2.26930       52.55580
    2283.87500        2.61289        2.26610       51.21210
    2284.00000        2.68728        2.25750       45.21430
    2284.12500        2.75298        2.25390       43.35430
    2284.25000        2.82890        2.25850       41.30430
    2284.37500        2.89270        2.27030       40.44590
    2284.50000        2.94220        2.28480       41.42950
    2284.62500        3.06190        2.28670       39.76340
    2284.75000        3.02877        2.28710       39.44440
    2284.87500        2.94746        2.28370       39.04650
    2285.00000        2.86862        2.26920       38.58340
    2285.12500        2.78177        2.23700       39.07470
    2285.25000        2.67014        2.20340       41.41530
    2285.37500        2.69434        2.18660       41.18460
    2285.50000        2.72116        2.19110       42.99940
    2285.62500        2.80252        2.20970       42.63980
    2285.75000        2.87614        2.23270       41.71870
    2285.87500        2.88575        2.25190       41.93230
    2286.00000        2.85527        2.25360       42.90630
    2286.12500        2.83619        2.23640       42.70110
    2286.25000        2.80079        2.19960       42.89650
    2286.37500        2.75457        2.15700       40.40950
    2286.50000        2.72485        2.12750       36.20160
    2286.62500        2.73658        2.11630       33.19580
    2286.75000        2.76073        2.12390       32.50370
    2286.87500        2.80431        2.14230       33.22560
    2287.00000        2.84018        2.16850       35.76510
    2287.12500        2.84675        2.20520       38.60580
    2287.25000        2.83174        2.26050       40.86200
    2287.37500        2.83585        2.28610       42.89920
    2287.50000        2.79453        2.28200       42.64290
    2287.62500        2.77623        2.23300       39.69390
    2287.75000        2.79159        2.16540       35.30570
    2287.87500        2.81064        2.11410       31.66640
    2288.00000        2.80855        2.08050       30.21930
    2288.12500        2.84756        2.07660       28.56610
    2288.25000        2.82004        2.07960       31.95150
    2288.37500        2.80328        2.08280       32.84870
    2288.50000        2.78629        2.08400       34.00810
    2288.62500        2.76828        2.08410       35.39370
    2288.75000        2.76477        2.08570       33.63620
    2288.87500        2.76734        2.09260       33.84130
    2289.00000        2.76776        2.10360       31.65870
    2289.12500        2.77333        2.11510       30.04830
    2289.25000        2.78915        2.12390       29.22960
    2289.37500        2.81675        2.12870       28.92120
    2289.50000        2.85051        2.13500       29.97200
    2289.62500        2.88912        2.14030       30.07700
    2289.75000        2.88588        2.15010       30.41590
    2289.87500        2.92576        2.16060       30.61830
    2290.00000        2.95386        2.16160       31.52440
    2290.12500        2.82614        2.15520       34.27260
    2290.25000        2.68209        2.14190       33.78560
    2290.37500        2.59038        2.13980       35.73120
    2290.50000        2.54512        2.14260       37.73370
    2290.62500        2.55105        2.14130       39.48820
    2290.75000        2.59385        2.13490       40.66010
    2290.87500        2.61323        2.11580       39.91670
    2291.00000        2.59328        2.11130       37.40470
    2291.12500        2.56034        2.11130       36.61600
    2291.25000        2.53625        2.11190       36.37370
    2291.37500        2.53249        2.11260       36.22720
    2291.50000        2.54109        2.10620       36.37560
    2291.62500        2.47962        2.11970       37.52900
    2291.75000        2.40019        2.13570       37.65630
    2291.87500        2.31239        2.14530       37.65630
    2292.00000        2.27975        2.14460       37.22790
    2292.12500        2.31735        2.13660       36.88720
    2292.25000        2.36381        2.12700       38.55960
    2292.37500        2.44346        2.12630       40.71270
    2292.50000        2.52186        2.12240       39.32470
    2292.62500        2.55219        2.11550       37.56300
    2292.75000        2.53253        2.11370       35.99500
    2292.87500        2.49695        2.13130       34.60930
    2293.00000        2.50536        2.15780       36.78800
    2293.12500        2.49258        2.17720       37.08630
    2293.25000        2.48962        2.18320       37.59000
    2293.37500        2.50679        2.18090       37.75350
    2293.50000        2.52095        2.18660       38.51210
    2293.62500        2.48024        2.21390       42.47870
    2293.75000        2.47199        2.22530       45.06740
    2293.87500        2.50989        2.21020       47.92960
    2294.00000        2.58643        2.17300       47.96730
    2294.12500        2.66848        2.12990       44.27120
    2294.25000        2.72310        2.11230       38.59720
    2294.37500        2.77133        2.10980       37.85380
    2294.50000        2.74743        2.11870       37.23160
    2294.62500        2.71978        2.13630       41.41150
    2294.75000        2.65858        2.15880       45.20480
    2294.87500        2.57985        2.17860       46.86720
    2295.00000        2.53406        2.16260       48.23730
    2295.12500        2.52438        2.13160       44.80270
    2295.25000        2.53386        2.09800       39.52040
    2295.37500        2.59512        2.07940       34.18130
    2295.50000        2.65626        2.08320       29.98570
    2295.62500        2.66783        2.08970       27.82220
    2295.75000        2.66783        2.10070       28.28360
    2295.87500        2.66319        2.10230       28.30930
    2296.00000        2.67644        2.10240       30.13500
    2296.12500        2.69065        2.10350       30.39780
    2296.25000        2.70273        2.10470       28.99560
    2296.37500        2.72158        2.11750       27.83070
    2296.50000        2.75563        2.12470       24.22950
    2296.62500        2.78826        2.13430       22.28900
    2296.75000        2.80561        2.14550       21.98070
    2296.87500        2.81142        2.15600       23.86530
    2297.00000        2.81507        2.16400       27.42930
    2297.12500        2.82711        2.16570       30.26160
    2297.25000        2.83521        2.16600       30.50880
    2297.37500        2.84865        2.16870       29.81350
    2297.50000        2.86529        2.17240       29.78540
    2297.62500        2.87717        2.17250       30.41160
    2297.75000        2.87598        2.16130       30.71860
    2297.87500        2.86628        2.15000       29.82150
    2298.00000        2.84676        2.13990       28.26490
